WB_country_code,WB_country_name,Latitude,Longitude,year,GDP_deviation
AFG,Afghanistan,34.52,69.18,1960,-73.03256174434016
ARE,United Arab Emirates,24.47,54.37,1960,-100.0
ARG,Argentina,-34.58,-58.67,1960,-100.0
ARM,Armenia,40.17,44.5,1960,-100.0
AUS,Australia,-35.27,149.13,1960,682.8642569456102
AUT,Austria,48.2,16.37,1960,304.4726597825807
AZE,Azerbaijan,40.38,49.87,1960,-100.0
BDI,Burundi,-3.37,29.35,1960,-69.145480296234
BEL,Belgium,50.83,4.33,1960,450.7159921733428
BFA,Burkina Faso,12.37,-1.52,1960,-70.13130295493055
BGR,Bulgaria,42.68,23.32,1960,-100.0
BHR,Bahrain,26.23,50.57,1960,-100.0
BHS,Bahamas,25.08,-77.35,1960,541.2171065118414
BLR,Belarus,53.9,27.57,1960,-100.0
BMU,Bermuda,32.28,-64.78,1960,722.5565903089191
BRA,Brazil,-15.78,-47.92,1960,-100.0
BRB,Barbados,13.1,-59.62,1960,-100.0
BWA,Botswana,-24.63,25.9,1960,-74.3599633067079
CAN,Canada,45.42,-75.7,1960,876.8508077457032
CHE,Switzerland,46.92,7.47,1960,672.8157838806505
CHL,Chile,-33.45,-70.67,1960,118.264595662291
CHN,China,39.92,116.38,1960,-61.293489295387694
CIV,Côte d'Ivoire,6.82,-5.27,1960,-36.31931527507485
CMR,Cameroon,3.87,11.52,1960,-48.10594934352583
COL,Colombia,4.6,-74.08,1960,11.103943148538601
CRI,Costa Rica,9.93,-84.08,1960,62.99367002142202
CUB,Cuba,23.12,-82.35,1960,-100.0
CYP,Cyprus,35.17,33.37,1960,-100.0
CZE,Czech Republic,49.81,15.47,1960,-100.0
DEU,Germany,52.52,13.4,1960,-100.0
DJI,Djibouti,11.58,43.15,1960,-100.0
DNK,Denmark,55.67,12.58,1960,-100.0
DOM,Dominican Republic,18.47,-69.9,1960,-11.84670015129183
DZA,Algeria,36.75,3.05,1960,3.3513991702801373
ECU,Ecuador,-0.22,-78.5,1960,93.75306648619099
EGY,Egypt,30.05,31.25,1960,-100.0
ERI,Eritrea,15.33,38.93,1960,-100.0
ESP,Spain,40.4,-3.68,1960,71.39045775470586
EST,Estonia,59.43,24.72,1960,-100.0
ETH,Ethiopia,9.03,38.7,1960,-100.0
FIN,Finland,60.17,24.93,1960,409.9254177779771
FJI,Fiji,-18.13,178.42,1960,20.862722712916387
FRA,France,48.87,2.33,1960,476.7408456062138
GAB,Gabon,0.38,9.45,1960,19.15915197815128
GBR,Great Britain,54.08,-1.65,1960,504.28767086303736
GEO,Georgia,41.68,44.83,1960,-100.0
GHA,Ghana,5.55,-0.22,1960,-23.430116390976405
GRC,Greece,37.98,23.73,1960,124.97510779517285
GRD,Grenada,12.05,-61.75,1960,-100.0
GTM,Guatemala,14.62,-90.52,1960,9.287954040413364
GUY,Guyana,6.8,-58.15,1960,28.67147587785493
HKG,Hong Kong,22.4,114.11,1960,83.35436695037859
HRV,Croatia,45.8,16.0,1960,-100.0
HUN,Hungary,47.5,19.08,1960,-100.0
IDN,Indonesia,-6.17,106.82,1960,-100.0
IND,India,28.6,77.2,1960,-64.09530106220951
IRL,Ireland,53.32,-6.23,1960,196.44292676708264
IRN,Iran,35.7,51.42,1960,-15.115480545917267
IRQ,Iraq,33.33,44.4,1960,2.7676883855255974
ISL,Iceland,64.15,-21.95,1960,511.80673052739405
ISR,Israel,31.77,35.23,1960,431.4665076272152
ITA,Italy,41.9,12.48,1960,247.84406609420856
JAM,Jamaica,18.0,-76.8,1960,84.04184854131171
JOR,Jordan,31.95,35.93,1960,-100.0
JPN,Japan,35.68,139.75,1960,105.5180816366881
KAZ,Kazakhstan,51.17,71.42,1960,-100.0
KEN,Kenya,-1.28,36.82,1960,-55.862817105375065
KGZ,Kyrgyzstan,42.87,74.6,1960,-100.0
KOR,South Korea,37.55,126.98,1960,-31.567477108813797
KWT,Kuwait,29.37,47.97,1960,-100.0
LBN,Lebanon,33.87,35.5,1960,-100.0
LKA,Sri Lanka,6.92,79.83,1960,-37.694278456941106
LTU,Lithuania,54.68,25.32,1960,-100.0
LVA,Latvia,56.95,24.1,1960,-100.0
MAR,Morocco,34.02,-6.82,1960,-25.37149522323411
MDA,Moldova,47.0,28.85,1960,-100.0
MEX,Mexico,19.43,-99.13,1960,55.46163900629304
MKD,North Macedonia,41.6,21.74,1960,-100.0
MNE,Montenegro,42.43,19.27,1960,-100.0
MNG,Mongolia,47.92,106.92,1960,-100.0
MOZ,Mozambique,-25.95,32.58,1960,-100.0
MUS,Mauritius,-20.15,57.48,1960,-100.0
MYS,Malaysia,3.17,101.7,1960,5.76407041393225
NAM,Namibia,-22.57,17.08,1960,-100.0
NER,Niger,13.52,2.12,1960,-44.42640950777682
NGA,Nigeria,9.08,7.53,1960,-59.615861262167236
NLD,Netherlands,52.35,4.92,1960,362.1173426147847
NOR,Norway,59.92,10.75,1960,523.3858229834879
NZL,New Zealand,-41.3,174.78,1960,900.0695256281613
PAK,Pakistan,33.68,73.05,1960,-64.72224968287179
PAN,Panama,8.97,-79.53,1960,106.08017350348877
PER,Peru,-12.05,-77.05,1960,-100.0
PHL,Philippines,14.6,120.97,1960,14.078706258991378
POL,Poland,52.25,21.0,1960,-100.0
PRI,Puerto Rico,18.47,-66.12,1960,210.23579642165294
PRK,North Korea,39.02,125.75,1960,-100.0
PRT,Portugal,38.72,-9.13,1960,55.87239844741659
PRY,Paraguay,-25.27,-57.67,1960,-100.0
QAT,Qatar,25.28,51.53,1960,-100.0
ROU,Romania,44.43,26.1,1960,-100.0
RUS,Russia,55.75,37.6,1960,-100.0
SAU,Saudi Arabia,24.65,46.7,1960,-100.0
SDN,Sudan,15.6,32.53,1960,-56.62380301735137
SEN,Senegal,14.73,-17.63,1960,32.584500027505754
SGP,Singapore,1.28,103.85,1960,85.08388038668835
SMR,San Marino,43.93,12.42,1960,-100.0
SRB,Serbia,44.83,20.5,1960,-100.0
SUR,Suriname,5.83,-55.17,1960,60.533437158271376
SVK,Slovakia,48.15,17.12,1960,-100.0
SVN,Slovenia,46.05,14.52,1960,-100.0
SWE,Sweden,59.33,18.05,1960,814.0478510897051
SYR,Syria,33.5,36.3,1960,-19.568977644414876
TGO,Togo,6.12,1.22,1960,-68.28504736166988
THA,Thailand,13.75,100.52,1960,-55.11912632776188
TJK,Tajikistan,38.55,68.77,1960,-100.0
TKM,Turkmenistan,37.95,58.38,1960,-100.0
TON,Tonga,-21.13,-175.2,1960,-100.0
TTO,Trinidad and Tobago,10.65,-61.52,1960,173.43175049698135
TUN,Tunisia,36.8,10.18,1960,-100.0
TUR,Turkey,39.93,32.87,1960,18.921343880658707
TZA,Tanzania,-6.8,39.28,1960,-100.0
UGA,Uganda,0.32,32.55,1960,-75.99002972042985
UKR,Ukraine,50.43,30.52,1960,-100.0
URY,Uruguay,-34.85,-56.17,1960,106.58605618360937
USA,United States,38.88,-90.0,1960,1200.213611148947
UZB,Uzbekistan,41.32,69.25,1960,-100.0
VEN,Venezuela,10.48,-66.87,1960,306.2454110547981
VIR,United States Virgin Islands,18.35,-64.93,1960,-100.0
VNM,Vietnam,21.03,105.85,1960,-100.0
WSM,Samoa,-13.82,-171.77,1960,-100.0
XKX,Kosovo,42.67,21.17,1960,-100.0
ZAF,South Africa,-25.7,28.22,1960,128.9702838330483
ZMB,Zambia,-15.42,28.28,1960,-1.1712784656698736
ZWE,Zimbabwe,-17.82,31.03,1960,19.613149255182595
AFG,Afghanistan,34.52,69.18,1961,-74.37939520614908
ARE,United Arab Emirates,24.47,54.37,1961,-100.0
ARG,Argentina,-34.58,-58.67,1961,-100.0
ARM,Armenia,40.17,44.5,1961,-100.0
AUS,Australia,-35.27,149.13,1961,670.4235675998477
AUT,Austria,48.2,16.37,1961,323.3800838947992
AZE,Azerbaijan,40.38,49.87,1961,-100.0
BDI,Burundi,-3.37,29.35,1961,-70.41977258826532
BEL,Belgium,50.83,4.33,1961,454.0189076338489
BFA,Burkina Faso,12.37,-1.52,1961,-70.38694670127768
BGR,Bulgaria,42.68,23.32,1961,-100.0
BHR,Bahrain,26.23,50.57,1961,-100.0
BHS,Bahamas,25.08,-77.35,1961,548.8446886693862
BLR,Belarus,53.9,27.57,1961,-100.0
BMU,Bermuda,32.28,-64.78,1961,704.8661295216262
BRA,Brazil,-15.78,-47.92,1961,-100.0
BRB,Barbados,13.1,-59.62,1961,-100.0
BWA,Botswana,-24.63,25.9,1961,-74.25629812994543
CAN,Canada,45.42,-75.7,1961,819.3012747964033
CHE,Switzerland,46.92,7.47,1961,708.879094205865
CHL,Chile,-33.45,-70.67,1961,138.352868653108
CHN,China,39.92,116.38,1961,-68.89336884334018
CIV,Côte d'Ivoire,6.82,-5.27,1961,-34.08151569295081
CMR,Cameroon,3.87,11.52,1961,-48.49208008052359
COL,Colombia,4.6,-74.08,1961,15.128592137390978
CRI,Costa Rica,9.93,-84.08,1961,44.10564387572782
CUB,Cuba,23.12,-82.35,1961,-100.0
CYP,Cyprus,35.17,33.37,1961,-100.0
CZE,Czech Republic,49.81,15.47,1961,-100.0
DEU,Germany,52.52,13.4,1961,-100.0
DJI,Djibouti,11.58,43.15,1961,-100.0
DNK,Denmark,55.67,12.58,1961,-100.0
DOM,Dominican Republic,18.47,-69.9,1961,-21.25480035253153
DZA,Algeria,36.75,3.05,1961,-13.864872544439683
ECU,Ecuador,-0.22,-78.5,1961,51.454539325085136
EGY,Egypt,30.05,31.25,1961,-100.0
ERI,Eritrea,15.33,38.93,1961,-100.0
ESP,Spain,40.4,-3.68,1961,84.66613048482719
EST,Estonia,59.43,24.72,1961,-100.0
ETH,Ethiopia,9.03,38.7,1961,-100.0
FIN,Finland,60.17,24.93,1961,444.6758395499926
FJI,Fiji,-18.13,178.42,1961,15.801522820637558
FRA,France,48.87,2.33,1961,486.93916904657567
GAB,Gabon,0.38,9.45,1961,32.452453995116585
GBR,Great Britain,54.08,-1.65,1961,504.1563467715915
GEO,Georgia,41.68,44.83,1961,-100.0
GHA,Ghana,5.55,-0.22,1961,-24.397879031597803
GRC,Greece,37.98,23.73,1961,142.4109689319547
GRD,Grenada,12.05,-61.75,1961,-100.0
GTM,Guatemala,14.62,-90.52,1961,3.9062420234924717
GUY,Guyana,6.8,-58.15,1961,29.559672704331042
HKG,Hong Kong,22.4,114.11,1961,79.20882677313247
HRV,Croatia,45.8,16.0,1961,-100.0
HUN,Hungary,47.5,19.08,1961,-100.0
IDN,Indonesia,-6.17,106.82,1961,-100.0
IND,India,28.6,77.2,1961,-64.72448119591024
IRL,Ireland,53.32,-6.23,1961,203.34402165275645
IRN,Iran,35.7,51.42,1961,-17.373139216243413
IRQ,Iraq,33.33,44.4,1961,3.5041249078939183
ISL,Iceland,64.15,-21.95,1961,481.89218892222635
ISR,Israel,31.77,35.23,1961,489.38059439128114
ITA,Italy,41.9,12.48,1961,264.0965319951262
JAM,Jamaica,18.0,-76.8,1961,84.4855881063952
JOR,Jordan,31.95,35.93,1961,-100.0
JPN,Japan,35.68,139.75,1961,133.43719207670932
KAZ,Kazakhstan,51.17,71.42,1961,-100.0
KEN,Kenya,-1.28,36.82,1961,-59.56671370297772
KGZ,Kyrgyzstan,42.87,74.6,1961,-100.0
KOR,South Korea,37.55,126.98,1961,-61.499337799374885
KWT,Kuwait,29.37,47.97,1961,-100.0
LBN,Lebanon,33.87,35.5,1961,-100.0
LKA,Sri Lanka,6.92,79.83,1961,-40.87237106351828
LTU,Lithuania,54.68,25.32,1961,-100.0
LVA,Latvia,56.95,24.1,1961,-100.0
MAR,Morocco,34.02,-6.82,1961,-31.40620590345837
MDA,Moldova,47.0,28.85,1961,-100.0
MEX,Mexico,19.43,-99.13,1961,55.18848396992887
MKD,North Macedonia,41.6,21.74,1961,-100.0
MNE,Montenegro,42.43,19.27,1961,-100.0
MNG,Mongolia,47.92,106.92,1961,-100.0
MOZ,Mozambique,-25.95,32.58,1961,-100.0
MUS,Mauritius,-20.15,57.48,1961,-100.0
MYS,Malaysia,3.17,101.7,1961,-3.35648547252228
NAM,Namibia,-22.57,17.08,1961,-100.0
NER,Niger,13.52,2.12,1961,-44.66786424646384
NGA,Nigeria,9.08,7.53,1961,-60.026276120804646
NLD,Netherlands,52.35,4.92,1961,375.72506393246044
NOR,Norway,59.92,10.75,1961,540.2360998068783
NZL,New Zealand,-41.3,174.78,1961,861.5071589907581
PAK,Pakistan,33.68,73.05,1961,-64.08847963552479
PAN,Panama,8.97,-79.53,1961,111.73928077788105
PER,Peru,-12.05,-77.05,1961,-100.0
PHL,Philippines,14.6,120.97,1961,14.266912603965512
POL,Poland,52.25,21.0,1961,-100.0
PRI,Puerto Rico,18.47,-66.12,1961,218.91169855664344
PRK,North Korea,39.02,125.75,1961,-100.0
PRT,Portugal,38.72,-9.13,1961,57.043146584730394
PRY,Paraguay,-25.27,-57.67,1961,-100.0
QAT,Qatar,25.28,51.53,1961,-100.0
ROU,Romania,44.43,26.1,1961,-100.0
RUS,Russia,55.75,37.6,1961,-100.0
SAU,Saudi Arabia,24.65,46.7,1961,-100.0
SDN,Sudan,15.6,32.53,1961,-56.444151203278736
SEN,Senegal,14.73,-17.63,1961,29.05087145602266
SGP,Singapore,1.28,103.85,1961,84.29683925621626
SMR,San Marino,43.93,12.42,1961,-100.0
SRB,Serbia,44.83,20.5,1961,-100.0
SUR,Suriname,5.83,-55.17,1961,58.97987391700098
SVK,Slovakia,48.15,17.12,1961,-100.0
SVN,Slovenia,46.05,14.52,1961,-100.0
SWE,Sweden,59.33,18.05,1961,839.197865546785
SYR,Syria,33.5,36.3,1961,-18.37432876936635
TGO,Togo,6.12,1.22,1961,-69.10673710875982
THA,Thailand,13.75,100.52,1961,-54.56486917323649
TJK,Tajikistan,38.55,68.77,1961,-100.0
TKM,Turkmenistan,37.95,58.38,1961,-100.0
TON,Tonga,-21.13,-175.2,1961,-100.0
TTO,Trinidad and Tobago,10.65,-61.52,1961,177.4731194706248
TUN,Tunisia,36.8,10.18,1961,-100.0
TUR,Turkey,39.93,32.87,1961,16.014891086057194
TZA,Tanzania,-6.8,39.28,1961,-100.0
UGA,Uganda,0.32,32.55,1961,-76.88647232482988
UKR,Ukraine,50.43,30.52,1961,-100.0
URY,Uruguay,-34.85,-56.17,1961,156.33735148645982
USA,United States,38.88,-90.0,1961,1158.2819000101135
UZB,Uzbekistan,41.32,69.25,1961,-100.0
VEN,Venezuela,10.48,-66.87,1961,291.5964188190194
VIR,United States Virgin Islands,18.35,-64.93,1961,-100.0
VNM,Vietnam,21.03,105.85,1961,-100.0
WSM,Samoa,-13.82,-171.77,1961,-100.0
XKX,Kosovo,42.67,21.17,1961,-100.0
ZAF,South Africa,-25.7,28.22,1961,122.82212087208211
ZMB,Zambia,-15.42,28.28,1961,-11.259317764795961
ZWE,Zimbabwe,-17.82,31.03,1961,14.615687653209145
AFG,Afghanistan,34.52,69.18,1962,-76.03832804383195
ARE,United Arab Emirates,24.47,54.37,1962,-100.0
ARG,Argentina,-34.58,-58.67,1962,-100.0
ARM,Armenia,40.17,44.5,1962,-100.0
AUS,Australia,-35.27,149.13,1962,629.1267477733799
AUT,Austria,48.2,16.37,1962,327.66571950907763
AZE,Azerbaijan,40.38,49.87,1962,-100.0
BDI,Burundi,-3.37,29.35,1962,-70.93148442265685
BEL,Belgium,50.83,4.33,1962,465.53477181930845
BFA,Burkina Faso,12.37,-1.52,1962,-69.69703569513645
BGR,Bulgaria,42.68,23.32,1962,-100.0
BHR,Bahrain,26.23,50.57,1962,-100.0
BHS,Bahamas,25.08,-77.35,1962,560.6620197804895
BLR,Belarus,53.9,27.57,1962,-100.0
BMU,Bermuda,32.28,-64.78,1962,694.2891288518844
BRA,Brazil,-15.78,-47.92,1962,-100.0
BRB,Barbados,13.1,-59.62,1962,-100.0
BWA,Botswana,-24.63,25.9,1962,-73.87607708798414
CAN,Canada,45.42,-75.7,1962,791.8656174412348
CHE,Switzerland,46.92,7.47,1962,737.9272845062675
CHL,Chile,-33.45,-70.67,1962,160.88147487110012
CHN,China,39.92,116.38,1962,-72.12268813106029
CIV,Côte d'Ivoire,6.82,-5.27,1962,-36.551694224676616
CMR,Cameroon,3.87,11.52,1962,-48.53842725082204
COL,Colombia,4.6,-74.08,1962,16.71830659666497
CRI,Costa Rica,9.93,-84.08,1962,30.187164368909713
CUB,Cuba,23.12,-82.35,1962,-100.0
CYP,Cyprus,35.17,33.37,1962,-100.0
CZE,Czech Republic,49.81,15.47,1962,-100.0
DEU,Germany,52.52,13.4,1962,-100.0
DJI,Djibouti,11.58,43.15,1962,-100.0
DNK,Denmark,55.67,12.58,1962,-100.0
DOM,Dominican Republic,18.47,-69.9,1962,-7.990324780614133
DZA,Algeria,36.75,3.05,1962,-33.1943081950511
ECU,Ecuador,-0.22,-78.5,1962,22.045306678799133
EGY,Egypt,30.05,31.25,1962,-100.0
ERI,Eritrea,15.33,38.93,1962,-100.0
ESP,Spain,40.4,-3.68,1962,104.51355813483474
EST,Estonia,59.43,24.72,1962,-100.0
ETH,Ethiopia,9.03,38.7,1962,-100.0
FIN,Finland,60.17,24.93,1962,454.99084988551976
FJI,Fiji,-18.13,178.42,1962,12.975646760361126
FRA,France,48.87,2.33,1962,523.4123328592931
GAB,Gabon,0.38,9.45,1962,36.68571133257597
GBR,Great Britain,54.08,-1.65,1962,499.8398660751776
GEO,Georgia,41.68,44.83,1962,-100.0
GHA,Ghana,5.55,-0.22,1962,-24.942372274460993
GRC,Greece,37.98,23.73,1962,142.5888317846276
GRD,Grenada,12.05,-61.75,1962,-100.0
GTM,Guatemala,14.62,-90.52,1962,2.6794008451512656
GUY,Guyana,6.8,-58.15,1962,26.715768743430406
HKG,Hong Kong,22.4,114.11,1962,91.77986568757825
HRV,Croatia,45.8,16.0,1962,-100.0
HUN,Hungary,47.5,19.08,1962,-100.0
IDN,Indonesia,-6.17,106.82,1962,-100.0
IND,India,28.6,77.2,1962,-64.5076334011017
IRL,Ireland,53.32,-6.23,1962,213.33375169459376
IRN,Iran,35.7,51.42,1962,-18.373060734057905
IRQ,Iraq,33.33,44.4,1962,2.6951263066483486
ISL,Iceland,64.15,-21.95,1962,514.1696928643872
ISR,Israel,31.77,35.23,1962,330.3429793289547
ITA,Italy,41.9,12.48,1962,289.3073875523374
JAM,Jamaica,18.0,-76.8,1962,81.58976663747364
JOR,Jordan,31.95,35.93,1962,-100.0
JPN,Japan,35.68,139.75,1962,151.46585479972643
KAZ,Kazakhstan,51.17,71.42,1962,-100.0
KEN,Kenya,-1.28,36.82,1962,-59.192427415090364
KGZ,Kyrgyzstan,42.87,74.6,1962,-100.0
KOR,South Korea,37.55,126.98,1962,-58.26462518676293
KWT,Kuwait,29.37,47.97,1962,-100.0
LBN,Lebanon,33.87,35.5,1962,-100.0
LKA,Sri Lanka,6.92,79.83,1962,-45.082757086839806
LTU,Lithuania,54.68,25.32,1962,-100.0
LVA,Latvia,56.95,24.1,1962,-100.0
MAR,Morocco,34.02,-6.82,1962,-24.824431313232925
MDA,Moldova,47.0,28.85,1962,-100.0
MEX,Mexico,19.43,-99.13,1962,54.475139651142065
MKD,North Macedonia,41.6,21.74,1962,-100.0
MNE,Montenegro,42.43,19.27,1962,-100.0
MNG,Mongolia,47.92,106.92,1962,-100.0
MOZ,Mozambique,-25.95,32.58,1962,-100.0
MUS,Mauritius,-20.15,57.48,1962,-100.0
MYS,Malaysia,3.17,101.7,1962,-5.474250941082129
NAM,Namibia,-22.57,17.08,1962,-100.0
NER,Niger,13.52,2.12,1962,-43.671396917477324
NGA,Nigeria,9.08,7.53,1962,-58.77963405079214
NLD,Netherlands,52.35,4.92,1962,387.75663925477556
NOR,Norway,59.92,10.75,1962,555.4568920249577
NZL,New Zealand,-41.3,174.78,1962,862.6459196395695
PAK,Pakistan,33.68,73.05,1962,-64.81821126566895
PAN,Panama,8.97,-79.53,1962,114.30658928213819
PER,Peru,-12.05,-77.05,1962,-100.0
PHL,Philippines,14.6,120.97,1962,-35.47056874675271
POL,Poland,52.25,21.0,1962,-100.0
PRI,Puerto Rico,18.47,-66.12,1962,236.02952400024728
PRK,North Korea,39.02,125.75,1962,-100.0
PRT,Portugal,38.72,-9.13,1962,60.34073678955105
PRY,Paraguay,-25.27,-57.67,1962,-100.0
QAT,Qatar,25.28,51.53,1962,-100.0
ROU,Romania,44.43,26.1,1962,-100.0
RUS,Russia,55.75,37.6,1962,-100.0
SAU,Saudi Arabia,24.65,46.7,1962,-100.0
SDN,Sudan,15.6,32.53,1962,-55.84683548158764
SEN,Senegal,14.73,-17.63,1962,23.208990829582675
SGP,Singapore,1.28,103.85,1962,85.59189658847923
SMR,San Marino,43.93,12.42,1962,-100.0
SRB,Serbia,44.83,20.5,1962,-100.0
SUR,Suriname,5.83,-55.17,1962,58.39077956391374
SVK,Slovakia,48.15,17.12,1962,-100.0
SVN,Slovenia,46.05,14.52,1962,-100.0
SWE,Sweden,59.33,18.05,1962,870.5322385803527
SYR,Syria,33.5,36.3,1962,-10.805182388590557
TGO,Togo,6.12,1.22,1962,-69.54371244553998
THA,Thailand,13.75,100.52,1962,-53.94012327506731
TJK,Tajikistan,38.55,68.77,1962,-100.0
TKM,Turkmenistan,37.95,58.38,1962,-100.0
TON,Tonga,-21.13,-175.2,1962,-100.0
TTO,Trinidad and Tobago,10.65,-61.52,1962,176.2020057346254
TUN,Tunisia,36.8,10.18,1962,-100.0
TUR,Turkey,39.93,32.87,1962,20.814789316653016
TZA,Tanzania,-6.8,39.28,1962,-100.0
UGA,Uganda,0.32,32.55,1962,-78.12195169219439
UKR,Ukraine,50.43,30.52,1962,-100.0
URY,Uruguay,-34.85,-56.17,1962,167.45078641150317
USA,United States,38.88,-90.0,1962,1175.2720255667948
UZB,Uzbekistan,41.32,69.25,1962,-100.0
VEN,Venezuela,10.48,-66.87,1962,295.84131680437207
VIR,United States Virgin Islands,18.35,-64.93,1962,-100.0
VNM,Vietnam,21.03,105.85,1962,-100.0
WSM,Samoa,-13.82,-171.77,1962,-100.0
XKX,Kosovo,42.67,21.17,1962,-100.0
ZAF,South Africa,-25.7,28.22,1962,120.43165653524892
ZMB,Zambia,-15.42,28.28,1962,-18.00744375425091
ZWE,Zimbabwe,-17.82,31.03,1962,8.493890233694758
AFG,Afghanistan,34.52,69.18,1963,-69.72454074527471
ARE,United Arab Emirates,24.47,54.37,1963,-100.0
ARG,Argentina,-34.58,-58.67,1963,-100.0
ARM,Armenia,40.17,44.5,1963,-100.0
AUS,Australia,-35.27,149.13,1963,626.1053237571649
AUT,Austria,48.2,16.37,1963,330.76641002516965
AZE,Azerbaijan,40.38,49.87,1963,-100.0
BDI,Burundi,-3.37,29.35,1963,-70.85774801072225
BEL,Belgium,50.83,4.33,1963,466.6110151815218
BFA,Burkina Faso,12.37,-1.52,1963,-70.9020427572544
BGR,Bulgaria,42.68,23.32,1963,-100.0
BHR,Bahrain,26.23,50.57,1963,-100.0
BHS,Bahamas,25.08,-77.35,1963,561.623246492986
BLR,Belarus,53.9,27.57,1963,-100.0
BMU,Bermuda,32.28,-64.78,1963,645.7278964709078
BRA,Brazil,-15.78,-47.92,1963,-100.0
BRB,Barbados,13.1,-59.62,1963,-100.0
BWA,Botswana,-24.63,25.9,1963,-74.3902540466613
CAN,Canada,45.42,-75.7,1963,776.4822970049403
CHE,Switzerland,46.92,7.47,1963,746.8343466594204
CHL,Chile,-33.45,-70.67,1963,138.4349293536918
CHN,China,39.92,116.38,1963,-72.57047820996542
CIV,Côte d'Ivoire,6.82,-5.27,1963,-32.41359924969275
CMR,Cameroon,3.87,11.52,1963,-51.14658580391499
COL,Colombia,4.6,-74.08,1963,3.7198402339095327
CRI,Costa Rica,9.93,-84.08,1963,26.08499600376816
CUB,Cuba,23.12,-82.35,1963,-100.0
CYP,Cyprus,35.17,33.37,1963,-100.0
CZE,Czech Republic,49.81,15.47,1963,-100.0
DEU,Germany,52.52,13.4,1963,-100.0
DJI,Djibouti,11.58,43.15,1963,-100.0
DNK,Denmark,55.67,12.58,1963,-100.0
DOM,Dominican Republic,18.47,-69.9,1963,-4.485761561171469
DZA,Algeria,36.75,3.05,1963,-16.64466948424695
ECU,Ecuador,-0.22,-78.5,1963,33.762752069341026
EGY,Egypt,30.05,31.25,1963,-100.0
ERI,Eritrea,15.33,38.93,1963,-100.0
ESP,Spain,40.4,-3.68,1963,124.97670886567323
EST,Estonia,59.43,24.72,1963,-100.0
ETH,Ethiopia,9.03,38.7,1963,-100.0
FIN,Finland,60.17,24.93,1963,461.92315450686914
FJI,Fiji,-18.13,178.42,1963,8.260051753455027
FRA,France,48.87,2.33,1963,549.2354823794943
GAB,Gabon,0.38,9.45,1963,7.064093597086943
GBR,Great Britain,54.08,-1.65,1963,495.5650144980379
GEO,Georgia,41.68,44.83,1963,-100.0
GHA,Ghana,5.55,-0.22,1963,-23.322102523968734
GRC,Greece,37.98,23.73,1963,156.6253052628952
GRD,Grenada,12.05,-61.75,1963,-100.0
GTM,Guatemala,14.62,-90.52,1963,3.391320863796083
GUY,Guyana,6.8,-58.15,1963,4.520836900365937
HKG,Hong Kong,22.4,114.11,1963,108.82389129694879
HRV,Croatia,45.8,16.0,1963,-100.0
HUN,Hungary,47.5,19.08,1963,-100.0
IDN,Indonesia,-6.17,106.82,1963,-100.0
IND,India,28.6,77.2,1963,-62.600469011353745
IRL,Ireland,53.32,-6.23,1963,214.54437758256043
IRN,Iran,35.7,51.42,1963,-21.782860081976477
IRQ,Iraq,33.33,44.4,1963,-5.607895139985962
ISL,Iceland,64.15,-21.95,1963,576.1260847533878
ISR,Israel,31.77,35.23,1963,364.286459463375
ITA,Italy,41.9,12.48,1963,315.63975408444
JAM,Jamaica,18.0,-76.8,1963,79.09473391612002
JOR,Jordan,31.95,35.93,1963,-100.0
JPN,Japan,35.68,139.75,1963,167.49966553653832
KAZ,Kazakhstan,51.17,71.42,1963,-100.0
KEN,Kenya,-1.28,36.82,1963,-60.673647537205156
KGZ,Kyrgyzstan,42.87,74.6,1963,-100.0
KOR,South Korea,37.55,126.98,1963,-45.99732151955242
KWT,Kuwait,29.37,47.97,1963,-100.0
LBN,Lebanon,33.87,35.5,1963,-100.0
LKA,Sri Lanka,6.92,79.83,1963,-56.45826415889545
LTU,Lithuania,54.68,25.32,1963,-100.0
LVA,Latvia,56.95,24.1,1963,-100.0
MAR,Morocco,34.02,-6.82,1963,-23.189218284372277
MDA,Moldova,47.0,28.85,1963,-100.0
MEX,Mexico,19.43,-99.13,1963,56.57823776227653
MKD,North Macedonia,41.6,21.74,1963,-100.0
MNE,Montenegro,42.43,19.27,1963,-100.0
MNG,Mongolia,47.92,106.92,1963,-100.0
MOZ,Mozambique,-25.95,32.58,1963,-100.0
MUS,Mauritius,-20.15,57.48,1963,-100.0
MYS,Malaysia,3.17,101.7,1963,7.997974503139786
NAM,Namibia,-22.57,17.08,1963,-100.0
NER,Niger,13.52,2.12,1963,-43.38762270303319
NGA,Nigeria,9.08,7.53,1963,-60.12734566330864
NLD,Netherlands,52.35,4.92,1963,390.20995987131647
NOR,Norway,59.92,10.75,1963,555.407217062974
NZL,New Zealand,-41.3,174.78,1963,867.9214187628108
PAK,Pakistan,33.68,73.05,1963,-65.34674329634711
PAN,Panama,8.97,-79.53,1963,116.33185083414841
PER,Peru,-12.05,-77.05,1963,-100.0
PHL,Philippines,14.6,120.97,1963,-34.54343831211368
POL,Poland,52.25,21.0,1963,-100.0
PRI,Puerto Rico,18.47,-66.12,1963,243.93025067776506
PRK,North Korea,39.02,125.75,1963,-100.0
PRT,Portugal,38.72,-9.13,1963,59.649340188505676
PRY,Paraguay,-25.27,-57.67,1963,-100.0
QAT,Qatar,25.28,51.53,1963,-100.0
ROU,Romania,44.43,26.1,1963,-100.0
RUS,Russia,55.75,37.6,1963,-100.0
SAU,Saudi Arabia,24.65,46.7,1963,-100.0
SDN,Sudan,15.6,32.53,1963,-58.93138750694056
SEN,Senegal,14.73,-17.63,1963,16.270018418019017
SGP,Singapore,1.28,103.85,1963,88.69562022696377
SMR,San Marino,43.93,12.42,1963,-100.0
SRB,Serbia,44.83,20.5,1963,-100.0
SUR,Suriname,5.83,-55.17,1963,55.31583748611022
SVK,Slovakia,48.15,17.12,1963,-100.0
SVN,Slovenia,46.05,14.52,1963,-100.0
SWE,Sweden,59.33,18.05,1963,880.7668952571348
SYR,Syria,33.5,36.3,1963,-12.170900084499687
TGO,Togo,6.12,1.22,1963,-69.55105298802377
THA,Thailand,13.75,100.52,1963,-55.11465684742019
TJK,Tajikistan,38.55,68.77,1963,-100.0
TKM,Turkmenistan,37.95,58.38,1963,-100.0
TON,Tonga,-21.13,-175.2,1963,-100.0
TTO,Trinidad and Tobago,10.65,-61.52,1963,178.89448908193415
TUN,Tunisia,36.8,10.18,1963,-100.0
TUR,Turkey,39.93,32.87,1963,28.152084175268556
TZA,Tanzania,-6.8,39.28,1963,-100.0
UGA,Uganda,0.32,32.55,1963,-77.07746866961179
UKR,Ukraine,50.43,30.52,1963,-100.0
URY,Uruguay,-34.85,-56.17,1963,118.59826536504347
USA,United States,38.88,-90.0,1963,1145.6125672306216
UZB,Uzbekistan,41.32,69.25,1963,-100.0
VEN,Venezuela,10.48,-66.87,1963,291.4806610800293
VIR,United States Virgin Islands,18.35,-64.93,1963,-100.0
VNM,Vietnam,21.03,105.85,1963,-100.0
WSM,Samoa,-13.82,-171.77,1963,-100.0
XKX,Kosovo,42.67,21.17,1963,-100.0
ZAF,South Africa,-25.7,28.22,1963,122.06432928118429
ZMB,Zambia,-15.42,28.28,1963,-22.6872111570079
ZWE,Zimbabwe,-17.82,31.03,1963,2.442675042232495
AFG,Afghanistan,34.52,69.18,1964,-71.04744903514705
ARE,United Arab Emirates,24.47,54.37,1964,-100.0
ARG,Argentina,-34.58,-58.67,1964,-100.0
ARM,Armenia,40.17,44.5,1964,-100.0
AUS,Australia,-35.27,149.13,1964,621.6569766748718
AUT,Austria,48.2,16.37,1964,329.80537621674637
AZE,Azerbaijan,40.38,49.87,1964,-100.0
BDI,Burundi,-3.37,29.35,1964,-70.89508500831764
BEL,Belgium,50.83,4.33,1964,476.2238201325575
BFA,Burkina Faso,12.37,-1.52,1964,-72.63203491417303
BGR,Bulgaria,42.68,23.32,1964,-100.0
BHR,Bahrain,26.23,50.57,1964,-100.0
BHS,Bahamas,25.08,-77.35,1964,550.5740793580524
BLR,Belarus,53.9,27.57,1964,-100.0
BMU,Bermuda,32.28,-64.78,1964,644.7993794166293
BRA,Brazil,-15.78,-47.92,1964,-100.0
BRB,Barbados,13.1,-59.62,1964,-100.0
BWA,Botswana,-24.63,25.9,1964,-74.94119638745448
CAN,Canada,45.42,-75.7,1964,765.1263302047179
CHE,Switzerland,46.92,7.47,1964,746.903592595919
CHL,Chile,-33.45,-70.67,1964,128.82706722695087
CHN,China,39.92,116.38,1964,-71.05083490240993
CIV,Côte d'Ivoire,6.82,-5.27,1964,-27.83362515906026
CMR,Cameroon,3.87,11.52,1964,-52.67234739951883
COL,Colombia,4.6,-74.08,1964,14.008922475561755
CRI,Costa Rica,9.93,-84.08,1964,18.471495528032346
CUB,Cuba,23.12,-82.35,1964,-100.0
CYP,Cyprus,35.17,33.37,1964,-100.0
CZE,Czech Republic,49.81,15.47,1964,-100.0
DEU,Germany,52.52,13.4,1964,-100.0
DJI,Djibouti,11.58,43.15,1964,-100.0
DNK,Denmark,55.67,12.58,1964,-100.0
DOM,Dominican Republic,18.47,-69.9,1964,-7.4574759710722995
DZA,Algeria,36.75,3.05,1964,-19.118402824417352
ECU,Ecuador,-0.22,-78.5,1964,46.59450901348067
EGY,Egypt,30.05,31.25,1964,-100.0
ERI,Eritrea,15.33,38.93,1964,-100.0
ESP,Spain,40.4,-3.68,1964,128.6273010584412
EST,Estonia,59.43,24.72,1964,-100.0
ETH,Ethiopia,9.03,38.7,1964,-100.0
FIN,Finland,60.17,24.93,1964,478.1368351360824
FJI,Fiji,-18.13,178.42,1964,4.156048740592494
FRA,France,48.87,2.33,1964,553.1337950087866
GAB,Gabon,0.38,9.45,1964,35.27555475368609
GBR,Great Britain,54.08,-1.65,1964,491.9477877013538
GEO,Georgia,41.68,44.83,1964,-100.0
GHA,Ghana,5.55,-0.22,1964,-22.853014415369614
GRC,Greece,37.98,23.73,1964,165.3538032588575
GRD,Grenada,12.05,-61.75,1964,-100.0
GTM,Guatemala,14.62,-90.52,1964,-5.219417710311237
GUY,Guyana,6.8,-58.15,1964,3.698956660104222
HKG,Hong Kong,22.4,114.11,1964,113.1708170034121
HRV,Croatia,45.8,16.0,1964,-100.0
HUN,Hungary,47.5,19.08,1964,-100.0
IDN,Indonesia,-6.17,106.82,1964,-100.0
IND,India,28.6,77.2,1964,-60.8966189810447
IRL,Ireland,53.32,-6.23,1964,226.78359300921733
IRN,Iran,35.7,51.42,1964,-23.939877806752826
IRQ,Iraq,33.33,44.4,1964,-0.9227521537215541
ISL,Iceland,64.15,-21.95,1964,678.0452100708092
ISR,Israel,31.77,35.23,1964,365.85809083185035
ITA,Italy,41.9,12.48,1964,313.9358163556464
JAM,Jamaica,18.0,-76.8,1964,76.23439103269746
JOR,Jordan,31.95,35.93,1964,-100.0
JPN,Japan,35.68,139.75,1964,185.6385340307478
KAZ,Kazakhstan,51.17,71.42,1964,-100.0
KEN,Kenya,-1.28,36.82,1964,-62.62341128511149
KGZ,Kyrgyzstan,42.87,74.6,1964,-100.0
KOR,South Korea,37.55,126.98,1964,-58.147294763589365
KWT,Kuwait,29.37,47.97,1964,-100.0
LBN,Lebanon,33.87,35.5,1964,-100.0
LKA,Sri Lanka,6.92,79.83,1964,-58.84139755247896
LTU,Lithuania,54.68,25.32,1964,-100.0
LVA,Latvia,56.95,24.1,1964,-100.0
MAR,Morocco,34.02,-6.82,1964,-27.623701388761944
MDA,Moldova,47.0,28.85,1964,-100.0
MEX,Mexico,19.43,-99.13,1964,64.48543163051764
MKD,North Macedonia,41.6,21.74,1964,-100.0
MNE,Montenegro,42.43,19.27,1964,-100.0
MNG,Mongolia,47.92,106.92,1964,-100.0
MOZ,Mozambique,-25.95,32.58,1964,-100.0
MUS,Mauritius,-20.15,57.48,1964,-100.0
MYS,Malaysia,3.17,101.7,1964,2.483430312731735
NAM,Namibia,-22.57,17.08,1964,-100.0
NER,Niger,13.52,2.12,1964,-49.87562104038323
NGA,Nigeria,9.08,7.53,1964,-61.51623269015102
NLD,Netherlands,52.35,4.92,1964,422.08380259916976
NOR,Norway,59.92,10.75,1964,556.1404451382205
NZL,New Zealand,-41.3,174.78,1964,852.630683746486
PAK,Pakistan,33.68,73.05,1964,-65.13911066142838
PAN,Panama,8.97,-79.53,1964,106.6834953277416
PER,Peru,-12.05,-77.05,1964,-100.0
PHL,Philippines,14.6,120.97,1964,-36.8400320783105
POL,Poland,52.25,21.0,1964,-100.0
PRI,Puerto Rico,18.47,-66.12,1964,240.76383893763244
PRK,North Korea,39.02,125.75,1964,-100.0
PRT,Portugal,38.72,-9.13,1964,58.722685549102614
PRY,Paraguay,-25.27,-57.67,1964,-100.0
QAT,Qatar,25.28,51.53,1964,-100.0
ROU,Romania,44.43,26.1,1964,-100.0
RUS,Russia,55.75,37.6,1964,-100.0
SAU,Saudi Arabia,24.65,46.7,1964,-100.0
SDN,Sudan,15.6,32.53,1964,-62.35931363860715
SEN,Senegal,14.73,-17.63,1964,9.851077476749976
SGP,Singapore,1.28,103.85,1964,64.39401321441997
SMR,San Marino,43.93,12.42,1964,-100.0
SRB,Serbia,44.83,20.5,1964,-100.0
SUR,Suriname,5.83,-55.17,1964,46.65884049147531
SVK,Slovakia,48.15,17.12,1964,-100.0
SVN,Slovenia,46.05,14.52,1964,-100.0
SWE,Sweden,59.33,18.05,1964,895.8004913481554
SYR,Syria,33.5,36.3,1964,-12.830847317256563
TGO,Togo,6.12,1.22,1964,-68.27442374685158
THA,Thailand,13.75,100.52,1964,-56.12593200765238
TJK,Tajikistan,38.55,68.77,1964,-100.0
TKM,Turkmenistan,37.95,58.38,1964,-100.0
TON,Tonga,-21.13,-175.2,1964,-100.0
TTO,Trinidad and Tobago,10.65,-61.52,1964,163.89110860129503
TUN,Tunisia,36.8,10.18,1964,-100.0
TUR,Turkey,39.93,32.87,1964,23.62817136939255
TZA,Tanzania,-6.8,39.28,1964,-100.0
UGA,Uganda,0.32,32.55,1964,-76.71200496593865
UKR,Ukraine,50.43,30.52,1964,-100.0
URY,Uruguay,-34.85,-56.17,1964,151.5530082953748
USA,United States,38.88,-90.0,1964,1110.0886445483166
UZB,Uzbekistan,41.32,69.25,1964,-100.0
VEN,Venezuela,10.48,-66.87,1964,195.99251612062272
VIR,United States Virgin Islands,18.35,-64.93,1964,-100.0
VNM,Vietnam,21.03,105.85,1964,-100.0
WSM,Samoa,-13.82,-171.77,1964,-100.0
XKX,Kosovo,42.67,21.17,1964,-100.0
ZAF,South Africa,-25.7,28.22,1964,117.6063031177797
ZMB,Zambia,-15.42,28.28,1964,-19.7752610734153
ZWE,Zimbabwe,-17.82,31.03,1964,-4.389880230906614
AFG,Afghanistan,34.52,69.18,1965,-70.60941477044693
ARE,United Arab Emirates,24.47,54.37,1965,-100.0
ARG,Argentina,-34.58,-58.67,1965,-100.0
ARM,Armenia,40.17,44.5,1965,-100.0
AUS,Australia,-35.27,149.13,1965,537.022223626595
AUT,Austria,48.2,16.37,1965,283.8677415011173
AZE,Azerbaijan,40.38,49.87,1965,-100.0
BDI,Burundi,-3.37,29.35,1965,-85.75992074444213
BEL,Belgium,50.83,4.33,1965,412.6288896001076
BFA,Burkina Faso,12.37,-1.52,1965,-77.10248875930202
BGR,Bulgaria,42.68,23.32,1965,-100.0
BHR,Bahrain,26.23,50.57,1965,-100.0
BHS,Bahamas,25.08,-77.35,1965,479.16265076590696
BLR,Belarus,53.9,27.57,1965,-100.0
BMU,Bermuda,32.28,-64.78,1965,537.3601427460148
BRA,Brazil,-15.78,-47.92,1965,-100.0
BRB,Barbados,13.1,-59.62,1965,-100.0
BWA,Botswana,-24.63,25.9,1965,-77.60517835843918
CAN,Canada,45.42,-75.7,1965,673.6839765920244
CHE,Switzerland,46.92,7.47,1965,631.8266893038694
CHL,Chile,-33.45,-70.67,1965,89.65920031446295
CHN,China,39.92,116.38,1965,-72.4945007672113
CIV,Côte d'Ivoire,6.82,-5.27,1965,-42.82743625813279
CMR,Cameroon,3.87,11.52,1965,-60.044555028580795
COL,Colombia,4.6,-74.08,1965,-11.970673031096325
CRI,Costa Rica,9.93,-84.08,1965,3.3250543826496157
CUB,Cuba,23.12,-82.35,1965,-100.0
CYP,Cyprus,35.17,33.37,1965,-100.0
CZE,Czech Republic,49.81,15.47,1965,-100.0
DEU,Germany,52.52,13.4,1965,-100.0
DJI,Djibouti,11.58,43.15,1965,-100.0
DNK,Denmark,55.67,12.58,1965,-100.0
DOM,Dominican Republic,18.47,-69.9,1965,-35.89031979003988
DZA,Algeria,36.75,3.05,1965,-29.257609801424472
ECU,Ecuador,-0.22,-78.5,1965,24.89881634561973
EGY,Egypt,30.05,31.25,1965,-55.15729503696944
ERI,Eritrea,15.33,38.93,1965,-100.0
ESP,Spain,40.4,-3.68,1965,116.36877434861779
EST,Estonia,59.43,24.72,1965,-100.0
ETH,Ethiopia,9.03,38.7,1965,-100.0
FIN,Finland,60.17,24.93,1965,425.61503757781776
FJI,Fiji,-18.13,178.42,1965,-12.417508230329354
FRA,France,48.87,2.33,1965,475.38410061239256
GAB,Gabon,0.38,9.45,1965,15.515277161725926
GBR,Great Britain,54.08,-1.65,1965,423.23564014190185
GEO,Georgia,41.68,44.83,1965,-100.0
GHA,Ghana,5.55,-0.22,1965,-26.33363196644329
GRC,Greece,37.98,23.73,1965,151.143723728929
GRD,Grenada,12.05,-61.75,1965,-100.0
GTM,Guatemala,14.62,-90.52,1965,-22.130588373657524
GUY,Guyana,6.8,-58.15,1965,-8.412747757203258
HKG,Hong Kong,22.4,114.11,1965,89.01408199557024
HRV,Croatia,45.8,16.0,1965,-100.0
HUN,Hungary,47.5,19.08,1965,-100.0
IDN,Indonesia,-6.17,106.82,1965,-100.0
IND,India,28.6,77.2,1965,-66.74429029708115
IRL,Ireland,53.32,-6.23,1965,185.91029494925456
IRN,Iran,35.7,51.42,1965,-29.835702840432216
IRQ,Iraq,33.33,44.4,1965,-100.0
ISL,Iceland,64.15,-21.95,1965,660.6028761344771
ISR,Israel,31.77,35.23,1965,299.1662616348584
ITA,Italy,41.9,12.48,1965,264.29635977471025
JAM,Jamaica,18.0,-76.8,1965,55.409282293250605
JOR,Jordan,31.95,35.93,1965,53.17789901708061
JPN,Japan,35.68,139.75,1965,159.30963699491275
KAZ,Kazakhstan,51.17,71.42,1965,-100.0
KEN,Kenya,-1.28,36.82,1965,-70.40554621079686
KGZ,Kyrgyzstan,42.87,74.6,1965,-100.0
KOR,South Korea,37.55,126.98,1965,-69.63754821211508
KWT,Kuwait,29.37,47.97,1965,1039.826324283566
LBN,Lebanon,33.87,35.5,1965,-100.0
LKA,Sri Lanka,6.92,79.83,1965,-57.02003927377216
LTU,Lithuania,54.68,25.32,1965,-100.0
LVA,Latvia,56.95,24.1,1965,-100.0
MAR,Morocco,34.02,-6.82,1965,-38.70538154520802
MDA,Moldova,47.0,28.85,1965,-100.0
MEX,Mexico,19.43,-99.13,1965,42.7135771950419
MKD,North Macedonia,41.6,21.74,1965,-100.0
MNE,Montenegro,42.43,19.27,1965,-100.0
MNG,Mongolia,47.92,106.92,1965,-100.0
MOZ,Mozambique,-25.95,32.58,1965,-100.0
MUS,Mauritius,-20.15,57.48,1965,-100.0
MYS,Malaysia,3.17,101.7,1965,-9.183538475880246
NAM,Namibia,-22.57,17.08,1965,-100.0
NER,Niger,13.52,2.12,1965,-53.607335439629836
NGA,Nigeria,9.08,7.53,1965,-67.13806381640526
NLD,Netherlands,52.35,4.92,1965,377.0245023812201
NOR,Norway,59.92,10.75,1965,504.4758648024585
NZL,New Zealand,-41.3,174.78,1965,500.79505984877636
PAK,Pakistan,33.68,73.05,1965,-68.05966141482341
PAN,Panama,8.97,-79.53,1965,81.66085024819158
PER,Peru,-12.05,-77.05,1965,-100.0
PHL,Philippines,14.6,120.97,1965,-44.51703185523272
POL,Poland,52.25,21.0,1965,-100.0
PRI,Puerto Rico,18.47,-66.12,1965,210.22371522752218
PRK,North Korea,39.02,125.75,1965,-100.0
PRT,Portugal,38.72,-9.13,1965,45.47557727030111
PRY,Paraguay,-25.27,-57.67,1965,-42.19628153921614
QAT,Qatar,25.28,51.53,1965,-100.0
ROU,Romania,44.43,26.1,1965,-100.0
RUS,Russia,55.75,37.6,1965,-100.0
SAU,Saudi Arabia,24.65,46.7,1965,-100.0
SDN,Sudan,15.6,32.53,1965,-68.55118013397976
SEN,Senegal,14.73,-17.63,1965,-10.381615353823834
SGP,Singapore,1.28,103.85,1965,44.25236591240067
SMR,San Marino,43.93,12.42,1965,-100.0
SRB,Serbia,44.83,20.5,1965,-100.0
SUR,Suriname,5.83,-55.17,1965,34.081279689858654
SVK,Slovakia,48.15,17.12,1965,-100.0
SVN,Slovenia,46.05,14.52,1965,-100.0
SWE,Sweden,59.33,18.05,1965,795.3739576631517
SYR,Syria,33.5,36.3,1965,-30.821532998740103
TGO,Togo,6.12,1.22,1965,-71.26570396932046
THA,Thailand,13.75,100.52,1965,-60.38526686799598
TJK,Tajikistan,38.55,68.77,1965,-100.0
TKM,Turkmenistan,37.95,58.38,1965,-100.0
TON,Tonga,-21.13,-175.2,1965,-100.0
TTO,Trinidad and Tobago,10.65,-61.52,1965,121.55206265972105
TUN,Tunisia,36.8,10.18,1965,-37.90666362657896
TUR,Turkey,39.93,32.87,1965,6.517133337170631
TZA,Tanzania,-6.8,39.28,1965,-100.0
UGA,Uganda,0.32,32.55,1965,-72.02253108802141
UKR,Ukraine,50.43,30.52,1965,-100.0
URY,Uruguay,-34.85,-56.17,1965,97.24143510144856
USA,United States,38.88,-90.0,1965,968.9219563252685
UZB,Uzbekistan,41.32,69.25,1965,-100.0
VEN,Venezuela,10.48,-66.87,1965,142.94150510300753
VIR,United States Virgin Islands,18.35,-64.93,1965,-100.0
VNM,Vietnam,21.03,105.85,1965,-100.0
WSM,Samoa,-13.82,-171.77,1965,-100.0
XKX,Kosovo,42.67,21.17,1965,-100.0
ZAF,South Africa,-25.7,28.22,1965,90.22053703349945
ZMB,Zambia,-15.42,28.28,1965,-17.329902701897574
ZWE,Zimbabwe,-17.82,31.03,1965,-17.645480061355904
AFG,Afghanistan,34.52,69.18,1966,-63.73087575150896
ARE,United Arab Emirates,24.47,54.37,1966,-100.0
ARG,Argentina,-34.58,-58.67,1966,-100.0
ARM,Armenia,40.17,44.5,1966,-100.0
AUS,Australia,-35.27,149.13,1966,494.04820961634005
AUT,Austria,48.2,16.37,1966,276.8770068747639
AZE,Azerbaijan,40.38,49.87,1966,-100.0
BDI,Burundi,-3.37,29.35,1966,-86.86860008864905
BEL,Belgium,50.83,4.33,1966,396.16719568534944
BFA,Burkina Faso,12.37,-1.52,1966,-79.02422974978953
BGR,Bulgaria,42.68,23.32,1966,-100.0
BHR,Bahrain,26.23,50.57,1966,-100.0
BHS,Bahamas,25.08,-77.35,1966,469.4708722412444
BLR,Belarus,53.9,27.57,1966,-100.0
BMU,Bermuda,32.28,-64.78,1966,566.7968241030233
BRA,Brazil,-15.78,-47.92,1966,-100.0
BRB,Barbados,13.1,-59.62,1966,-100.0
BWA,Botswana,-24.63,25.9,1966,-77.30835294222639
CAN,Canada,45.42,-75.7,1966,672.2991697331902
CHE,Switzerland,46.92,7.47,1966,605.7981716876341
CHL,Chile,-33.45,-70.67,1966,98.15208964858681
CHN,China,39.92,116.38,1966,-73.55978307755008
CIV,Côte d'Ivoire,6.82,-5.27,1966,-44.43296435891562
CMR,Cameroon,3.87,11.52,1966,-62.99586205255282
COL,Colombia,4.6,-74.08,1966,-26.85853336387462
CRI,Costa Rica,9.93,-84.08,1966,-0.8466520108163771
CUB,Cuba,23.12,-82.35,1966,-100.0
CYP,Cyprus,35.17,33.37,1966,-100.0
CZE,Czech Republic,49.81,15.47,1966,-100.0
DEU,Germany,52.52,13.4,1966,-100.0
DJI,Djibouti,11.58,43.15,1966,-100.0
DNK,Denmark,55.67,12.58,1966,530.3730935247519
DOM,Dominican Republic,18.47,-69.9,1966,-37.45540327882507
DZA,Algeria,36.75,3.05,1966,-38.917827086748154
ECU,Ecuador,-0.22,-78.5,1966,12.033829430890918
EGY,Egypt,30.05,31.25,1966,-57.683487180097394
ERI,Eritrea,15.33,38.93,1966,-100.0
ESP,Spain,40.4,-3.68,1966,125.48699565976611
EST,Estonia,59.43,24.72,1966,-100.0
ETH,Ethiopia,9.03,38.7,1966,-100.0
FIN,Finland,60.17,24.93,1966,409.4937544064232
FJI,Fiji,-18.13,178.42,1966,-20.866904452383846
FRA,France,48.87,2.33,1966,459.8776762048685
GAB,Gabon,0.38,9.45,1966,12.12253798076494
GBR,Great Britain,54.08,-1.65,1966,403.54774703486765
GEO,Georgia,41.68,44.83,1966,-100.0
GHA,Ghana,5.55,-0.22,1966,-32.42943029596289
GRC,Greece,37.98,23.73,1966,152.8016254309742
GRD,Grenada,12.05,-61.75,1966,-100.0
GTM,Guatemala,14.62,-90.52,1966,-28.224645031934482
GUY,Guyana,6.8,-58.15,1966,-12.601802134121856
HKG,Hong Kong,22.4,114.11,1966,73.85101604309891
HRV,Croatia,45.8,16.0,1966,-100.0
HUN,Hungary,47.5,19.08,1966,-100.0
IDN,Indonesia,-6.17,106.82,1966,-100.0
IND,India,28.6,77.2,1966,-77.25005875230919
IRL,Ireland,53.32,-6.23,1966,172.3377826432292
IRN,Iran,35.7,51.42,1966,-32.244409606225666
IRQ,Iraq,33.33,44.4,1966,-100.0
ISL,Iceland,64.15,-21.95,1966,715.0262764125097
ISR,Israel,31.77,35.23,1966,283.6974270950776
ITA,Italy,41.9,12.48,1966,255.45262481519052
JAM,Jamaica,18.0,-76.8,1966,57.15606695680886
JOR,Jordan,31.95,35.93,1966,42.20233997804596
JPN,Japan,35.68,139.75,1966,170.8297372953709
KAZ,Kazakhstan,51.17,71.42,1966,-100.0
KEN,Kenya,-1.28,36.82,1966,-69.88978364276215
KGZ,Kyrgyzstan,42.87,74.6,1966,-100.0
KOR,South Korea,37.55,126.98,1966,-66.16909360804625
KWT,Kuwait,29.37,47.97,1966,971.7893722278578
LBN,Lebanon,33.87,35.5,1966,-100.0
LKA,Sri Lanka,6.92,79.83,1966,-60.71478505579238
LTU,Lithuania,54.68,25.32,1966,-100.0
LVA,Latvia,56.95,24.1,1966,-100.0
MAR,Morocco,34.02,-6.82,1966,-47.14998051505695
MDA,Moldova,47.0,28.85,1966,-100.0
MEX,Mexico,19.43,-99.13,1966,39.51827271185786
MKD,North Macedonia,41.6,21.74,1966,-100.0
MNE,Montenegro,42.43,19.27,1966,-100.0
MNG,Mongolia,47.92,106.92,1966,-100.0
MOZ,Mozambique,-25.95,32.58,1966,-100.0
MUS,Mauritius,-20.15,57.48,1966,-100.0
MYS,Malaysia,3.17,101.7,1966,-14.697858441145057
NAM,Namibia,-22.57,17.08,1966,-100.0
NER,Niger,13.52,2.12,1966,-57.33879110058693
NGA,Nigeria,9.08,7.53,1966,-68.37160017491826
NLD,Netherlands,52.35,4.92,1966,365.2890167392022
NOR,Norway,59.92,10.75,1966,487.29875623592545
NZL,New Zealand,-41.3,174.78,1966,455.3940926412361
PAK,Pakistan,33.68,73.05,1966,-68.74164155439274
PAN,Panama,8.97,-79.53,1966,74.3224386224294
PER,Peru,-12.05,-77.05,1966,-100.0
PHL,Philippines,14.6,120.97,1966,-45.94100970677392
POL,Poland,52.25,21.0,1966,-100.0
PRI,Puerto Rico,18.47,-66.12,1966,206.1230674952477
PRK,North Korea,39.02,125.75,1966,-100.0
PRT,Portugal,38.72,-9.13,1966,45.738009323024656
PRY,Paraguay,-25.27,-57.67,1966,-46.227411596367176
QAT,Qatar,25.28,51.53,1966,-100.0
ROU,Romania,44.43,26.1,1966,-100.0
RUS,Russia,55.75,37.6,1966,-100.0
SAU,Saudi Arabia,24.65,46.7,1966,-100.0
SDN,Sudan,15.6,32.53,1966,-71.47893395050527
SEN,Senegal,14.73,-17.63,1966,-18.590896515616215
SGP,Singapore,1.28,103.85,1966,43.65716019597985
SMR,San Marino,43.93,12.42,1966,-100.0
SRB,Serbia,44.83,20.5,1966,-100.0
SUR,Suriname,5.83,-55.17,1966,45.25391409371217
SVK,Slovakia,48.15,17.12,1966,-100.0
SVN,Slovenia,46.05,14.52,1966,-100.0
SWE,Sweden,59.33,18.05,1966,775.535645546575
SYR,Syria,33.5,36.3,1966,-39.57680488581229
TGO,Togo,6.12,1.22,1966,-70.89852658132956
THA,Thailand,13.75,100.52,1966,-58.033252319600656
TJK,Tajikistan,38.55,68.77,1966,-100.0
TKM,Turkmenistan,37.95,58.38,1966,-100.0
TON,Tonga,-21.13,-175.2,1966,-100.0
TTO,Trinidad and Tobago,10.65,-61.52,1966,94.60374765362613
TUN,Tunisia,36.8,10.18,1966,-42.00235009236755
TUR,Turkey,39.93,32.87,1966,11.078311622247938
TZA,Tanzania,-6.8,39.28,1966,-100.0
UGA,Uganda,0.32,32.55,1966,-74.23903711658541
UKR,Ukraine,50.43,30.52,1966,-100.0
URY,Uruguay,-34.85,-56.17,1966,69.05061622991639
USA,United States,38.88,-90.0,1966,950.8972414675284
UZB,Uzbekistan,41.32,69.25,1966,-100.0
VEN,Venezuela,10.48,-66.87,1966,122.32897128425112
VIR,United States Virgin Islands,18.35,-64.93,1966,-100.0
VNM,Vietnam,21.03,105.85,1966,-100.0
WSM,Samoa,-13.82,-171.77,1966,-100.0
XKX,Kosovo,42.67,21.17,1966,-100.0
ZAF,South Africa,-25.7,28.22,1966,82.0096681015121
ZMB,Zambia,-15.42,28.28,1966,-15.176884610464747
ZWE,Zimbabwe,-17.82,31.03,1966,-29.20043908054868
AFG,Afghanistan,34.52,69.18,1967,-59.579996331151705
ARE,United Arab Emirates,24.47,54.37,1967,-100.0
ARG,Argentina,-34.58,-58.67,1967,-100.0
ARM,Armenia,40.17,44.5,1967,-100.0
AUS,Australia,-35.27,149.13,1967,523.8443241372984
AUT,Austria,48.2,16.37,1967,279.5302216838015
AZE,Azerbaijan,40.38,49.87,1967,-100.0
BDI,Burundi,-3.37,29.35,1967,-86.83454447706652
BEL,Belgium,50.83,4.33,1967,404.52830325755576
BFA,Burkina Faso,12.37,-1.52,1967,-79.55425309422856
BGR,Bulgaria,42.68,23.32,1967,-100.0
BHR,Bahrain,26.23,50.57,1967,-100.0
BHS,Bahamas,25.08,-77.35,1967,496.37941885079675
BLR,Belarus,53.9,27.57,1967,-100.0
BMU,Bermuda,32.28,-64.78,1967,621.1985759601438
BRA,Brazil,-15.78,-47.92,1967,-100.0
BRB,Barbados,13.1,-59.62,1967,-100.0
BWA,Botswana,-24.63,25.9,1967,-75.49943786705511
CAN,Canada,45.42,-75.7,1967,677.8765269083685
CHE,Switzerland,46.92,7.47,1967,615.8719462967788
CHL,Chile,-33.45,-70.67,1967,82.96960804167955
CHN,China,39.92,116.38,1967,-76.6455215985281
CIV,Côte d'Ivoire,6.82,-5.27,1967,-46.08570665741585
CMR,Cameroon,3.87,11.52,1967,-62.11637150903182
COL,Colombia,4.6,-74.08,1967,-27.18741457894972
CRI,Costa Rica,9.93,-84.08,1967,-0.8710109220887443
CUB,Cuba,23.12,-82.35,1967,-100.0
CYP,Cyprus,35.17,33.37,1967,-100.0
CZE,Czech Republic,49.81,15.47,1967,-100.0
DEU,Germany,52.52,13.4,1967,-100.0
DJI,Djibouti,11.58,43.15,1967,-100.0
DNK,Denmark,55.67,12.58,1967,553.0138476320035
DOM,Dominican Republic,18.47,-69.9,1967,-39.107652545535956
DZA,Algeria,36.75,3.05,1967,-36.80339559175164
ECU,Ecuador,-0.22,-78.5,1967,9.117326408533517
EGY,Egypt,30.05,31.25,1967,-58.18003329207393
ERI,Eritrea,15.33,38.93,1967,-100.0
ESP,Spain,40.4,-3.68,1967,134.12749747312608
EST,Estonia,59.43,24.72,1967,-100.0
ETH,Ethiopia,9.03,38.7,1967,-100.0
FIN,Finland,60.17,24.93,1967,391.8464273681552
FJI,Fiji,-18.13,178.42,1967,-20.50434404352491
FRA,France,48.87,2.33,1967,471.51133619636687
GAB,Gabon,0.38,9.45,1967,16.322662948173868
GBR,Great Britain,54.08,-1.65,1967,397.7920389624424
GEO,Georgia,41.68,44.83,1967,-100.0
GHA,Ghana,5.55,-0.22,1967,-48.53261960309237
GRC,Greece,37.98,23.73,1967,158.25812118641832
GRD,Grenada,12.05,-61.75,1967,-100.0
GTM,Guatemala,14.62,-90.52,1967,-30.37178646576393
GUY,Guyana,6.8,-58.15,1967,-10.392693906351743
HKG,Hong Kong,22.4,114.11,1967,74.87206707817097
HRV,Croatia,45.8,16.0,1967,-100.0
HUN,Hungary,47.5,19.08,1967,-100.0
IDN,Indonesia,-6.17,106.82,1967,-87.10293117367728
IND,India,28.6,77.2,1967,-76.77608809958198
IRL,Ireland,53.32,-6.23,1967,178.54186891495624
IRN,Iran,35.7,51.42,1967,-30.09614607465017
IRQ,Iraq,33.33,44.4,1967,-100.0
ISL,Iceland,64.15,-21.95,1967,655.7503407760703
ISR,Israel,31.77,35.23,1967,254.97646579116795
ITA,Italy,41.9,12.48,1967,270.8306240765445
JAM,Jamaica,18.0,-76.8,1967,55.021123121645
JOR,Jordan,31.95,35.93,1967,20.672461751802395
JPN,Japan,35.68,139.75,1967,199.6549557150031
KAZ,Kazakhstan,51.17,71.42,1967,-100.0
KEN,Kenya,-1.28,36.82,1967,-70.78453644010924
KGZ,Kyrgyzstan,42.87,74.6,1967,-100.0
KOR,South Korea,37.55,126.98,1967,-61.033153129918105
KWT,Kuwait,29.37,47.97,1967,850.2799199573541
LBN,Lebanon,33.87,35.5,1967,-100.0
LKA,Sri Lanka,6.92,79.83,1967,-61.14437644563068
LTU,Lithuania,54.68,25.32,1967,-100.0
LVA,Latvia,56.95,24.1,1967,-100.0
MAR,Morocco,34.02,-6.82,1967,-48.02002519154749
MDA,Moldova,47.0,28.85,1967,-100.0
MEX,Mexico,19.43,-99.13,1967,40.65639010754992
MKD,North Macedonia,41.6,21.74,1967,-100.0
MNE,Montenegro,42.43,19.27,1967,-100.0
MNG,Mongolia,47.92,106.92,1967,-100.0
MOZ,Mozambique,-25.95,32.58,1967,-100.0
MUS,Mauritius,-20.15,57.48,1967,-100.0
MYS,Malaysia,3.17,101.7,1967,-19.53234898012375
NAM,Namibia,-22.57,17.08,1967,-100.0
NER,Niger,13.52,2.12,1967,-62.52499629936713
NGA,Nigeria,9.08,7.53,1967,-75.85486889770179
NLD,Netherlands,52.35,4.92,1967,381.49056951604797
NOR,Norway,59.92,10.75,1967,507.8692709435387
NZL,New Zealand,-41.3,174.78,1967,429.13283501171026
PAK,Pakistan,33.68,73.05,1967,-66.96183943703159
PAN,Panama,8.97,-79.53,1967,79.79007195120067
PER,Peru,-12.05,-77.05,1967,-100.0
PHL,Philippines,14.6,120.97,1967,-46.04460238856555
POL,Poland,52.25,21.0,1967,-100.0
PRI,Puerto Rico,18.47,-66.12,1967,222.85468863374444
PRK,North Korea,39.02,125.75,1967,-100.0
PRT,Portugal,38.72,-9.13,1967,56.39448928087848
PRY,Paraguay,-25.27,-57.67,1967,-47.028686942805024
QAT,Qatar,25.28,51.53,1967,-100.0
ROU,Romania,44.43,26.1,1967,-100.0
RUS,Russia,55.75,37.6,1967,-100.0
SAU,Saudi Arabia,24.65,46.7,1967,-100.0
SDN,Sudan,15.6,32.53,1967,-71.2850413608158
SEN,Senegal,14.73,-17.63,1967,-24.61235303038697
SGP,Singapore,1.28,103.85,1967,51.367678990303865
SMR,San Marino,43.93,12.42,1967,-100.0
SRB,Serbia,44.83,20.5,1967,-100.0
SUR,Suriname,5.83,-55.17,1967,55.29676351275876
SVK,Slovakia,48.15,17.12,1967,-100.0
SVN,Slovenia,46.05,14.52,1967,-100.0
SWE,Sweden,59.33,18.05,1967,799.6829829008055
SYR,Syria,33.5,36.3,1967,-39.008518720661705
TGO,Togo,6.12,1.22,1967,-71.37450359301938
THA,Thailand,13.75,100.52,1967,-58.48468846119966
TJK,Tajikistan,38.55,68.77,1967,-100.0
TKM,Turkmenistan,37.95,58.38,1967,-100.0
TON,Tonga,-21.13,-175.2,1967,-100.0
TTO,Trinidad and Tobago,10.65,-61.52,1967,92.78385670422998
TUN,Tunisia,36.8,10.18,1967,-43.68231587875729
TUR,Turkey,39.93,32.87,1967,14.533418304102103
TZA,Tanzania,-6.8,39.28,1967,-100.0
UGA,Uganda,0.32,32.55,1967,-75.10290256755812
UKR,Ukraine,50.43,30.52,1967,-100.0
URY,Uruguay,-34.85,-56.17,1967,41.359998474340294
USA,United States,38.88,-90.0,1967,948.5046151205589
UZB,Uzbekistan,41.32,69.25,1967,-100.0
VEN,Venezuela,10.48,-66.87,1967,116.32451326461202
VIR,United States Virgin Islands,18.35,-64.93,1967,-100.0
VNM,Vietnam,21.03,105.85,1967,-100.0
WSM,Samoa,-13.82,-171.77,1967,-100.0
XKX,Kosovo,42.67,21.17,1967,-100.0
ZAF,South Africa,-25.7,28.22,1967,87.42337646651764
ZMB,Zambia,-15.42,28.28,1967,-15.216400750842535
ZWE,Zimbabwe,-17.82,31.03,1967,-28.657496664889763
AFG,Afghanistan,34.52,69.18,1968,-68.93360829750985
ARE,United Arab Emirates,24.47,54.37,1968,-100.0
ARG,Argentina,-34.58,-58.67,1968,-100.0
ARM,Armenia,40.17,44.5,1968,-100.0
AUS,Australia,-35.27,149.13,1968,531.511750082117
AUT,Austria,48.2,16.37,1968,288.9198818559559
AZE,Azerbaijan,40.38,49.87,1968,-100.0
BDI,Burundi,-3.37,29.35,1968,-87.33095808864199
BEL,Belgium,50.83,4.33,1968,415.1907041560034
BFA,Burkina Faso,12.37,-1.52,1968,-80.31372298055769
BGR,Bulgaria,42.68,23.32,1968,-100.0
BHR,Bahrain,26.23,50.57,1968,-100.0
BHS,Bahamas,25.08,-77.35,1968,523.3539534698446
BLR,Belarus,53.9,27.57,1968,-100.0
BMU,Bermuda,32.28,-64.78,1968,556.0987324264653
BRA,Brazil,-15.78,-47.92,1968,-100.0
BRB,Barbados,13.1,-59.62,1968,-100.0
BWA,Botswana,-24.63,25.9,1968,-73.641901823945
CAN,Canada,45.42,-75.7,1968,702.7234775045041
CHE,Switzerland,46.92,7.47,1968,623.7210476239607
CHL,Chile,-33.45,-70.67,1968,75.66038093160874
CHN,China,39.92,116.38,1968,-78.79529252274627
CIV,Côte d'Ivoire,6.82,-5.27,1968,-41.184581457810786
CMR,Cameroon,3.87,11.52,1968,-60.41648844712937
COL,Colombia,4.6,-74.08,1968,-30.47211253331209
CRI,Costa Rica,9.93,-84.08,1968,2.1405282002623762
CUB,Cuba,23.12,-82.35,1968,-100.0
CYP,Cyprus,35.17,33.37,1968,-100.0
CZE,Czech Republic,49.81,15.47,1968,-100.0
DEU,Germany,52.52,13.4,1968,-100.0
DJI,Djibouti,11.58,43.15,1968,-100.0
DNK,Denmark,55.67,12.58,1968,543.5687833814716
DOM,Dominican Republic,18.47,-69.9,1968,-40.87394072293028
DZA,Algeria,36.75,3.05,1968,-32.30118372600405
ECU,Ecuador,-0.22,-78.5,1968,2.752536812265761
EGY,Egypt,30.05,31.25,1968,-58.582780825558615
ERI,Eritrea,15.33,38.93,1968,-100.0
ESP,Spain,40.4,-3.68,1968,120.35787353781072
EST,Estonia,59.43,24.72,1968,-100.0
ETH,Ethiopia,9.03,38.7,1968,-100.0
FIN,Finland,60.17,24.93,1968,342.10203931038666
FJI,Fiji,-18.13,178.42,1968,-23.508196357334157
FRA,France,48.87,2.33,1968,492.0673313956107
GAB,Gabon,0.38,9.45,1968,19.007856461386048
GBR,Great Britain,54.08,-1.65,1968,352.4598214256561
GEO,Georgia,41.68,44.83,1968,-100.0
GHA,Ghana,5.55,-0.22,1968,-54.103990528624735
GRC,Greece,37.98,23.73,1968,167.6239477428754
GRD,Grenada,12.05,-61.75,1968,-100.0
GTM,Guatemala,14.62,-90.52,1968,-27.98235022538922
GUY,Guyana,6.8,-58.15,1968,-22.346770923191357
HKG,Hong Kong,22.4,114.11,1968,65.63178526673504
HRV,Croatia,45.8,16.0,1968,-100.0
HUN,Hungary,47.5,19.08,1968,-100.0
IDN,Indonesia,-6.17,106.82,1968,-84.9686975748865
IND,India,28.6,77.2,1968,-76.9291298990238
IRL,Ireland,53.32,-6.23,1968,160.68785014017033
IRN,Iran,35.7,51.42,1968,-25.617771497194315
IRQ,Iraq,33.33,44.4,1968,-26.660967994927358
ISL,Iceland,64.15,-21.95,1968,445.81895332944566
ISR,Israel,31.77,35.23,1968,282.01392104096317
ITA,Italy,41.9,12.48,1968,282.95511610336234
JAM,Jamaica,18.0,-76.8,1968,38.64776919204023
JOR,Jordan,31.95,35.93,1968,-4.818751546836762
JPN,Japan,35.68,139.75,1968,236.45173444886245
KAZ,Kazakhstan,51.17,71.42,1968,-100.0
KEN,Kenya,-1.28,36.82,1968,-70.44276589756365
KGZ,Kyrgyzstan,42.87,74.6,1968,-100.0
KOR,South Korea,37.55,126.98,1968,-53.999670878851425
KWT,Kuwait,29.37,47.97,1968,806.2966622283199
LBN,Lebanon,33.87,35.5,1968,-100.0
LKA,Sri Lanka,6.92,79.83,1968,-64.75154944882003
LTU,Lithuania,54.68,25.32,1968,-100.0
LVA,Latvia,56.95,24.1,1968,-100.0
MAR,Morocco,34.02,-6.82,1968,-47.8981304743328
MDA,Moldova,47.0,28.85,1968,-100.0
MEX,Mexico,19.43,-99.13,1968,44.29262135199569
MKD,North Macedonia,41.6,21.74,1968,-100.0
MNE,Montenegro,42.43,19.27,1968,-100.0
MNG,Mongolia,47.92,106.92,1968,-100.0
MOZ,Mozambique,-25.95,32.58,1968,-100.0
MUS,Mauritius,-20.15,57.48,1968,-100.0
MYS,Malaysia,3.17,101.7,1968,-21.389348359716358
NAM,Namibia,-22.57,17.08,1968,-100.0
NER,Niger,13.52,2.12,1968,-66.35343562645012
NGA,Nigeria,9.08,7.53,1968,-77.34177206923822
NLD,Netherlands,52.35,4.92,1968,406.58781037136487
NOR,Norway,59.92,10.75,1968,517.1365023433556
NZL,New Zealand,-41.3,174.78,1968,337.02051325920706
PAK,Pakistan,33.68,73.05,1968,-66.78230529774036
PAN,Panama,8.97,-79.53,1968,80.11367086970915
PER,Peru,-12.05,-77.05,1968,-100.0
PHL,Philippines,14.6,120.97,1968,-43.69752591012773
POL,Poland,52.25,21.0,1968,-100.0
PRI,Puerto Rico,18.47,-66.12,1968,243.25569382852134
PRK,North Korea,39.02,125.75,1968,-100.0
PRT,Portugal,38.72,-9.13,1968,66.69816390886216
PRY,Paraguay,-25.27,-57.67,1968,-47.867993686620515
QAT,Qatar,25.28,51.53,1968,-100.0
ROU,Romania,44.43,26.1,1968,-100.0
RUS,Russia,55.75,37.6,1968,-100.0
SAU,Saudi Arabia,24.65,46.7,1968,73.21930112691342
SDN,Sudan,15.6,32.53,1968,-72.00292421528442
SEN,Senegal,14.73,-17.63,1968,-26.28309904130406
SGP,Singapore,1.28,103.85,1968,64.26867517636387
SMR,San Marino,43.93,12.42,1968,-100.0
SRB,Serbia,44.83,20.5,1968,-100.0
SUR,Suriname,5.83,-55.17,1968,57.397487577962195
SVK,Slovakia,48.15,17.12,1968,-100.0
SVN,Slovenia,46.05,14.52,1968,-100.0
SWE,Sweden,59.33,18.05,1968,810.2260357031143
SYR,Syria,33.5,36.3,1968,-38.74581986755486
TGO,Togo,6.12,1.22,1968,-72.48743103312043
THA,Thailand,13.75,100.52,1968,-58.302276878390394
TJK,Tajikistan,38.55,68.77,1968,-100.0
TKM,Turkmenistan,37.95,58.38,1968,-100.0
TON,Tonga,-21.13,-175.2,1968,-100.0
TTO,Trinidad and Tobago,10.65,-61.52,1968,81.80133098159727
TUN,Tunisia,36.8,10.18,1968,-41.15212645565909
TUR,Turkey,39.93,32.87,1968,19.728821152041558
TZA,Tanzania,-6.8,39.28,1968,-100.0
UGA,Uganda,0.32,32.55,1968,-75.19742371278694
UKR,Ukraine,50.43,30.52,1968,-100.0
URY,Uruguay,-34.85,-56.17,1968,34.043795315378375
USA,United States,38.88,-90.0,1968,988.6149550299049
UZB,Uzbekistan,41.32,69.25,1968,-100.0
VEN,Venezuela,10.48,-66.87,1968,117.95852159302471
VIR,United States Virgin Islands,18.35,-64.93,1968,-100.0
VNM,Vietnam,21.03,105.85,1968,-100.0
WSM,Samoa,-13.82,-171.77,1968,-100.0
XKX,Kosovo,42.67,21.17,1968,-100.0
ZAF,South Africa,-25.7,28.22,1968,88.5890628601803
ZMB,Zambia,-15.42,28.28,1968,-7.605245303003698
ZWE,Zimbabwe,-17.82,31.03,1968,-29.804466774762943
AFG,Afghanistan,34.52,69.18,1969,-71.32064779967254
ARE,United Arab Emirates,24.47,54.37,1969,-100.0
ARG,Argentina,-34.58,-58.67,1969,-100.0
ARM,Armenia,40.17,44.5,1969,-100.0
AUS,Australia,-35.27,149.13,1969,539.0400549611736
AUT,Austria,48.2,16.37,1969,289.95160307602043
AZE,Azerbaijan,40.38,49.87,1969,-100.0
BDI,Burundi,-3.37,29.35,1969,-88.13518643421834
BEL,Belgium,50.83,4.33,1969,425.11092779576103
BFA,Burkina Faso,12.37,-1.52,1969,-81.47431342411622
BGR,Bulgaria,42.68,23.32,1969,-100.0
BHR,Bahrain,26.23,50.57,1969,-100.0
BHS,Bahamas,25.08,-77.35,1969,553.124447442124
BLR,Belarus,53.9,27.57,1969,-100.0
BMU,Bermuda,32.28,-64.78,1969,552.3511196583981
BRA,Brazil,-15.78,-47.92,1969,-100.0
BRB,Barbados,13.1,-59.62,1969,-100.0
BWA,Botswana,-24.63,25.9,1969,-71.83335130269515
CAN,Canada,45.42,-75.7,1969,704.079312584153
CHE,Switzerland,46.92,7.47,1969,614.5335095166577
CHL,Chile,-33.45,-70.67,1969,84.9385623340446
CHN,China,39.92,116.38,1969,-78.60958260097736
CIV,Côte d'Ivoire,6.82,-5.27,1969,-44.66006564249662
CMR,Cameroon,3.87,11.52,1969,-62.60041571909625
COL,Colombia,4.6,-74.08,1969,-32.427814566215424
CRI,Costa Rica,9.93,-84.08,1969,0.9748186557078669
CUB,Cuba,23.12,-82.35,1969,-100.0
CYP,Cyprus,35.17,33.37,1969,-100.0
CZE,Czech Republic,49.81,15.47,1969,-100.0
DEU,Germany,52.52,13.4,1969,-100.0
DJI,Djibouti,11.58,43.15,1969,-100.0
DNK,Denmark,55.67,12.58,1969,573.1647456165203
DOM,Dominican Republic,18.47,-69.9,1969,-39.612072402319804
DZA,Algeria,36.75,3.05,1969,-32.58803441090999
ECU,Ecuador,-0.22,-78.5,1969,10.86145120566061
EGY,Egypt,30.05,31.25,1969,-59.00080987495833
ERI,Eritrea,15.33,38.93,1969,-100.0
ESP,Spain,40.4,-3.68,1969,130.22096297392102
EST,Estonia,59.43,24.72,1969,-100.0
ETH,Ethiopia,9.03,38.7,1969,-100.0
FIN,Finland,60.17,24.93,1969,365.28697405140576
FJI,Fiji,-18.13,178.42,1969,-24.713763110321015
FRA,France,48.87,2.33,1969,491.2368620981026
GAB,Gabon,0.38,9.45,1969,16.24483798739804
GBR,Great Britain,54.08,-1.65,1969,348.7586948727143
GEO,Georgia,41.68,44.83,1969,-100.0
GHA,Ghana,5.55,-0.22,1969,-51.438433205374764
GRC,Greece,37.98,23.73,1969,182.8542500883842
GRD,Grenada,12.05,-61.75,1969,-100.0
GTM,Guatemala,14.62,-90.52,1969,-31.118284368911837
GUY,Guyana,6.8,-58.15,1969,-23.4725933800871
HKG,Hong Kong,22.4,114.11,1969,76.35291492301172
HRV,Croatia,45.8,16.0,1969,-100.0
HUN,Hungary,47.5,19.08,1969,-100.0
IDN,Indonesia,-6.17,106.82,1969,-84.11900899387453
IND,India,28.6,77.2,1969,-77.10351606084843
IRL,Ireland,53.32,-6.23,1969,175.8665285951051
IRN,Iran,35.7,51.42,1969,-24.707354316533237
IRQ,Iraq,33.33,44.4,1969,-32.199234254451184
ISL,Iceland,64.15,-21.95,1969,335.6270764015476
ISR,Israel,31.77,35.23,1969,295.7195174850249
ITA,Italy,41.9,12.48,1969,287.3880855609074
JAM,Jamaica,18.0,-76.8,1969,38.70979647817223
JOR,Jordan,31.95,35.93,1969,1.8122343773114606
JPN,Japan,35.68,139.75,1969,259.88795141753195
KAZ,Kazakhstan,51.17,71.42,1969,-100.0
KEN,Kenya,-1.28,36.82,1969,-71.77994468779696
KGZ,Kyrgyzstan,42.87,74.6,1969,-100.0
KOR,South Korea,37.55,126.98,1969,-47.996910941335464
KWT,Kuwait,29.37,47.97,1969,696.1494984040698
LBN,Lebanon,33.87,35.5,1969,-100.0
LKA,Sri Lanka,6.92,79.83,1969,-65.35406078324687
LTU,Lithuania,54.68,25.32,1969,-100.0
LVA,Latvia,56.95,24.1,1969,-100.0
MAR,Morocco,34.02,-6.82,1969,-47.81319218608569
MDA,Moldova,47.0,28.85,1969,-100.0
MEX,Mexico,19.43,-99.13,1969,42.43330566887398
MKD,North Macedonia,41.6,21.74,1969,-100.0
MNE,Montenegro,42.43,19.27,1969,-100.0
MNG,Mongolia,47.92,106.92,1969,-100.0
MOZ,Mozambique,-25.95,32.58,1969,-100.0
MUS,Mauritius,-20.15,57.48,1969,-100.0
MYS,Malaysia,3.17,101.7,1969,-22.19510715172243
NAM,Namibia,-22.57,17.08,1969,-100.0
NER,Niger,13.52,2.12,1969,-70.56868266190605
NGA,Nigeria,9.08,7.53,1969,-73.92902687130008
NLD,Netherlands,52.35,4.92,1969,464.60618764526976
NOR,Norway,59.92,10.75,1969,514.2273416794749
NZL,New Zealand,-41.3,174.78,1969,343.8944203877872
PAK,Pakistan,33.68,73.05,1969,-67.83853650831063
PAN,Panama,8.97,-79.53,1969,77.0087481539615
PER,Peru,-12.05,-77.05,1969,-100.0
PHL,Philippines,14.6,120.97,1969,-43.942280738264955
POL,Poland,52.25,21.0,1969,-100.0
PRI,Puerto Rico,18.47,-66.12,1969,255.019404403413
PRK,North Korea,39.02,125.75,1969,-100.0
PRT,Portugal,38.72,-9.13,1969,69.99539148553133
PRY,Paraguay,-25.27,-57.67,1969,-49.539293979595165
QAT,Qatar,25.28,51.53,1969,-100.0
ROU,Romania,44.43,26.1,1969,-100.0
RUS,Russia,55.75,37.6,1969,-100.0
SAU,Saudi Arabia,24.65,46.7,1969,63.95403520824819
SDN,Sudan,15.6,32.53,1969,-72.32255589516257
SEN,Senegal,14.73,-17.63,1969,-37.27286266977913
SGP,Singapore,1.28,103.85,1969,73.60995118184074
SMR,San Marino,43.93,12.42,1969,-100.0
SRB,Serbia,44.83,20.5,1969,-100.0
SUR,Suriname,5.83,-55.17,1969,50.88436841036338
SVK,Slovakia,48.15,17.12,1969,-100.0
SVN,Slovenia,46.05,14.52,1969,-100.0
SWE,Sweden,59.33,18.05,1969,804.5286101492627
SYR,Syria,33.5,36.3,1969,-37.19809340892166
TGO,Togo,6.12,1.22,1969,-73.02752321181866
THA,Thailand,13.75,100.52,1969,-58.88545158677822
TJK,Tajikistan,38.55,68.77,1969,-100.0
TKM,Turkmenistan,37.95,58.38,1969,-100.0
TON,Tonga,-21.13,-175.2,1969,-100.0
TTO,Trinidad and Tobago,10.65,-61.52,1969,70.09152339234807
TUN,Tunisia,36.8,10.18,1969,-43.938008209073104
TUR,Turkey,39.93,32.87,1969,19.767538306082585
TZA,Tanzania,-6.8,39.28,1969,-100.0
UGA,Uganda,0.32,32.55,1969,-75.052702048758
UKR,Ukraine,50.43,30.52,1969,-100.0
URY,Uruguay,-34.85,-56.17,1969,54.36434343712939
USA,United States,38.88,-90.0,1969,974.9982523750899
UZB,Uzbekistan,41.32,69.25,1969,-100.0
VEN,Venezuela,10.48,-66.87,1969,99.5377945826135
VIR,United States Virgin Islands,18.35,-64.93,1969,-100.0
VNM,Vietnam,21.03,105.85,1969,-100.0
WSM,Samoa,-13.82,-171.77,1969,-100.0
XKX,Kosovo,42.67,21.17,1969,-100.0
ZAF,South Africa,-25.7,28.22,1969,89.54007627367254
ZMB,Zambia,-15.42,28.28,1969,0.9684098619200779
ZWE,Zimbabwe,-17.82,31.03,1969,-25.96988669272642
AFG,Afghanistan,34.52,69.18,1970,-73.42408839182238
ARE,United Arab Emirates,24.47,54.37,1970,-100.0
ARG,Argentina,-34.58,-58.67,1970,-100.0
ARM,Armenia,40.17,44.5,1970,-100.0
AUS,Australia,-35.27,149.13,1970,440.0217395423619
AUT,Austria,48.2,16.37,1970,236.40979796832173
AZE,Azerbaijan,40.38,49.87,1970,-100.0
BDI,Burundi,-3.37,29.35,1970,-88.65981145101128
BEL,Belgium,50.83,4.33,1970,351.9555346651648
BFA,Burkina Faso,12.37,-1.52,1970,-86.65158497742236
BGR,Bulgaria,42.68,23.32,1970,-100.0
BHR,Bahrain,26.23,50.57,1970,-100.0
BHS,Bahamas,25.08,-77.35,1970,391.154350674054
BLR,Belarus,53.9,27.57,1970,-100.0
BMU,Bermuda,32.28,-64.78,1970,453.49107300191724
BRA,Brazil,-15.78,-47.92,1970,-100.0
BRB,Barbados,13.1,-59.62,1970,-100.0
BWA,Botswana,-24.63,25.9,1970,-73.44533081994008
CAN,Canada,45.42,-75.7,1970,575.8066081365787
CHE,Switzerland,46.92,7.47,1970,-100.0
CHL,Chile,-33.45,-70.67,1970,52.1497084095083
CHN,China,39.92,116.38,1970,-81.50928334000628
CIV,Côte d'Ivoire,6.82,-5.27,1970,-56.57720886155238
CMR,Cameroon,3.87,11.52,1970,-70.8472184578519
COL,Colombia,4.6,-74.08,1970,-43.735344047935314
CRI,Costa Rica,9.93,-84.08,1970,-13.280238258878828
CUB,Cuba,23.12,-82.35,1970,4.8804037488244445
CYP,Cyprus,35.17,33.37,1970,-100.0
CZE,Czech Republic,49.81,15.47,1970,-100.0
DEU,Germany,52.52,13.4,1970,351.184271121199
DJI,Djibouti,11.58,43.15,1970,-100.0
DNK,Denmark,55.67,12.58,1970,466.104173205036
DOM,Dominican Republic,18.47,-69.9,1970,-45.768081015506205
DZA,Algeria,36.75,3.05,1970,-42.39543704358795
ECU,Ecuador,-0.22,-78.5,1970,-24.218454706563357
EGY,Egypt,30.05,31.25,1970,-62.21789054326838
ERI,Eritrea,15.33,38.93,1970,-100.0
ESP,Spain,40.4,-3.68,1970,98.09217832930183
EST,Estonia,59.43,24.72,1970,-100.0
ETH,Ethiopia,9.03,38.7,1970,-100.0
FIN,Finland,60.17,24.93,1970,302.8936958779333
FJI,Fiji,-18.13,178.42,1970,-31.904945619307295
FRA,France,48.87,2.33,1970,368.9935960484941
GAB,Gabon,0.38,9.45,1970,-11.401100386928247
GBR,Great Britain,54.08,-1.65,1970,283.5957669494669
GEO,Georgia,41.68,44.83,1970,-100.0
GHA,Ghana,5.55,-0.22,1970,-59.16388299311566
GRC,Greece,37.98,23.73,1970,144.1882473447157
GRD,Grenada,12.05,-61.75,1970,-100.0
GTM,Guatemala,14.62,-90.52,1970,-42.968982602765905
GUY,Guyana,6.8,-58.15,1970,-37.95250150112391
HKG,Hong Kong,22.4,114.11,1970,56.87206358336672
HRV,Croatia,45.8,16.0,1970,-100.0
HUN,Hungary,47.5,19.08,1970,-100.0
IDN,Indonesia,-6.17,106.82,1970,-87.02414448594821
IND,India,28.6,77.2,1970,-81.70373325892986
IRL,Ireland,53.32,-6.23,1970,142.9006293941965
IRN,Iran,35.7,51.42,1970,-36.95737544545617
IRQ,Iraq,33.33,44.4,1970,-45.351402617812816
ISL,Iceland,64.15,-21.95,1970,320.98407446955497
ISR,Israel,31.77,35.23,1970,-100.0
ITA,Italy,41.9,12.48,1970,244.26786233893947
JAM,Jamaica,18.0,-76.8,1970,23.467528351813897
JOR,Jordan,31.95,35.93,1970,-32.900071674975045
JPN,Japan,35.68,139.75,1970,243.26946821740742
KAZ,Kazakhstan,51.17,71.42,1970,-100.0
KEN,Kenya,-1.28,36.82,1970,-77.16275574053797
KGZ,Kyrgyzstan,42.87,74.6,1970,-100.0
KOR,South Korea,37.55,126.98,1970,-54.35982617265069
KWT,Kuwait,29.37,47.97,1970,484.91516031972736
LBN,Lebanon,33.87,35.5,1970,-100.0
LKA,Sri Lanka,6.92,79.83,1970,-69.70993153708875
LTU,Lithuania,54.68,25.32,1970,-100.0
LVA,Latvia,56.95,24.1,1970,-100.0
MAR,Morocco,34.02,-6.82,1970,-57.88606924018925
MDA,Moldova,47.0,28.85,1970,-100.0
MEX,Mexico,19.43,-99.13,1970,15.413380029340477
MKD,North Macedonia,41.6,21.74,1970,-100.0
MNE,Montenegro,42.43,19.27,1970,-100.0
MNG,Mongolia,47.92,106.92,1970,-100.0
MOZ,Mozambique,-25.95,32.58,1970,-100.0
MUS,Mauritius,-20.15,57.48,1970,-100.0
MYS,Malaysia,3.17,101.7,1970,-38.73683730854676
NAM,Namibia,-22.57,17.08,1970,-100.0
NER,Niger,13.52,2.12,1970,-77.25752965060157
NGA,Nigeria,9.08,7.53,1970,-63.10843849127975
NLD,Netherlands,52.35,4.92,1970,378.29287746525137
NOR,Norway,59.92,10.75,1970,440.24723608699594
NZL,New Zealand,-41.3,174.78,1970,-100.0
PAK,Pakistan,33.68,73.05,1970,-72.36523505180152
PAN,Panama,8.97,-79.53,1970,45.60050441752748
PER,Peru,-12.05,-77.05,1970,-100.0
PHL,Philippines,14.6,120.97,1970,-67.00560703441205
POL,Poland,52.25,21.0,1970,-100.0
PRI,Puerto Rico,18.47,-66.12,1970,202.6800901832748
PRK,North Korea,39.02,125.75,1970,-100.0
PRT,Portugal,38.72,-9.13,1970,52.63174812448693
PRY,Paraguay,-25.27,-57.67,1970,-59.663897070347716
QAT,Qatar,25.28,51.53,1970,317.88758206316686
ROU,Romania,44.43,26.1,1970,-100.0
RUS,Russia,55.75,37.6,1970,-100.0
SAU,Saudi Arabia,24.65,46.7,1970,43.89784210224705
SDN,Sudan,15.6,32.53,1970,-76.55652952271738
SEN,Senegal,14.73,-17.63,1970,-51.46268578398253
SGP,Singapore,1.28,103.85,1970,51.2787688566825
SMR,San Marino,43.93,12.42,1970,-100.0
SRB,Serbia,44.83,20.5,1970,-100.0
SUR,Suriname,5.83,-55.17,1970,18.235354903130627
SVK,Slovakia,48.15,17.12,1970,-100.0
SVN,Slovenia,46.05,14.52,1970,-100.0
SWE,Sweden,59.33,18.05,1970,673.9139453817206
SYR,Syria,33.5,36.3,1970,-53.9692923018714
TGO,Togo,6.12,1.22,1970,-81.11384737043059
THA,Thailand,13.75,100.52,1970,-67.6477819767395
TJK,Tajikistan,38.55,68.77,1970,-100.0
TKM,Turkmenistan,37.95,58.38,1970,-100.0
TON,Tonga,-21.13,-175.2,1970,-100.0
TTO,Trinidad and Tobago,10.65,-61.52,1970,35.80120892353824
TUN,Tunisia,36.8,10.18,1970,-53.40718497321836
TUR,Turkey,39.93,32.87,1970,-17.870236765234647
TZA,Tanzania,-6.8,39.28,1970,-100.0
UGA,Uganda,0.32,32.55,1970,-80.05172596454547
UKR,Ukraine,50.43,30.52,1970,-100.0
URY,Uruguay,-34.85,-56.17,1970,25.15221630484089
USA,United States,38.88,-90.0,1970,755.3018576652985
UZB,Uzbekistan,41.32,69.25,1970,-100.0
VEN,Venezuela,10.48,-66.87,1970,66.36252685318323
VIR,United States Virgin Islands,18.35,-64.93,1970,-100.0
VNM,Vietnam,21.03,105.85,1970,-100.0
WSM,Samoa,-13.82,-171.77,1970,-100.0
XKX,Kosovo,42.67,21.17,1970,-100.0
ZAF,South Africa,-25.7,28.22,1970,55.00272990900893
ZMB,Zambia,-15.42,28.28,1970,-30.34117610325799
ZWE,Zimbabwe,-17.82,31.03,1970,-40.82513139581011
AFG,Afghanistan,34.52,69.18,1971,-76.01665435035765
ARE,United Arab Emirates,24.47,54.37,1971,-100.0
ARG,Argentina,-34.58,-58.67,1971,-100.0
ARM,Armenia,40.17,44.5,1971,-100.0
AUS,Australia,-35.27,149.13,1971,404.3024348086327
AUT,Austria,48.2,16.37,1971,243.54389558949237
AZE,Azerbaijan,40.38,49.87,1971,-100.0
BDI,Burundi,-3.37,29.35,1971,-89.81479744069154
BEL,Belgium,50.83,4.33,1971,344.8259884710135
BFA,Burkina Faso,12.37,-1.52,1971,-87.80488284016502
BGR,Bulgaria,42.68,23.32,1971,-100.0
BHR,Bahrain,26.23,50.57,1971,-100.0
BHS,Bahamas,25.08,-77.35,1971,348.5803300292116
BLR,Belarus,53.9,27.57,1971,-100.0
BMU,Bermuda,32.28,-64.78,1971,457.85590954886413
BRA,Brazil,-15.78,-47.92,1971,-100.0
BRB,Barbados,13.1,-59.62,1971,-100.0
BWA,Botswana,-24.63,25.9,1971,-69.56126459963573
CAN,Canada,45.42,-75.7,1971,554.3967394172265
CHE,Switzerland,46.92,7.47,1971,-100.0
CHL,Chile,-33.45,-70.67,1971,57.173013172974954
CHN,China,39.92,116.38,1971,-82.88037563873142
CIV,Côte d'Ivoire,6.82,-5.27,1971,-60.03256680934347
CMR,Cameroon,3.87,11.52,1971,-73.07031866171792
COL,Colombia,4.6,-74.08,1971,-47.28483134943551
CRI,Costa Rica,9.93,-84.08,1971,-18.436136070952244
CUB,Cuba,23.12,-82.35,1971,10.539531558461643
CYP,Cyprus,35.17,33.37,1971,-100.0
CZE,Czech Republic,49.81,15.47,1971,-100.0
DEU,Germany,52.52,13.4,1971,360.5821029274023
DJI,Djibouti,11.58,43.15,1971,-100.0
DNK,Denmark,55.67,12.58,1971,454.8561877581285
DOM,Dominican Republic,18.47,-69.9,1971,-47.72490597481999
DZA,Algeria,36.75,3.05,1971,-48.082737145624435
ECU,Ecuador,-0.22,-78.5,1971,-37.42715974082304
EGY,Egypt,30.05,31.25,1971,-65.0638462149687
ERI,Eritrea,15.33,38.93,1971,-100.0
ESP,Spain,40.4,-3.68,1971,96.54309916720798
EST,Estonia,59.43,24.72,1971,-100.0
ETH,Ethiopia,9.03,38.7,1971,-100.0
FIN,Finland,60.17,24.93,1971,291.91026122068365
FJI,Fiji,-18.13,178.42,1971,-33.55594590506378
FRA,France,48.87,2.33,1971,358.88096199845705
GAB,Gabon,0.38,9.45,1971,-9.672158121492034
GBR,Great Britain,54.08,-1.65,1971,282.331063063544
GEO,Georgia,41.68,44.83,1971,-100.0
GHA,Ghana,5.55,-0.22,1971,-61.553349285262314
GRC,Greece,37.98,23.73,1971,138.40934615132673
GRD,Grenada,12.05,-61.75,1971,-100.0
GTM,Guatemala,14.62,-90.52,1971,-48.76521353187644
GUY,Guyana,6.8,-58.15,1971,-42.99518590265494
HKG,Hong Kong,22.4,114.11,1971,59.648974016121784
HRV,Croatia,45.8,16.0,1971,-100.0
HUN,Hungary,47.5,19.08,1971,-100.0
IDN,Indonesia,-6.17,106.82,1971,-88.62010304784448
IND,India,28.6,77.2,1971,-82.95107615231778
IRL,Ireland,53.32,-6.23,1971,145.85454309225773
IRN,Iran,35.7,51.42,1971,-32.31796548349038
IRQ,Iraq,33.33,44.4,1971,-45.07868675201624
ISL,Iceland,64.15,-21.95,1971,369.2349800697982
ISR,Israel,31.77,35.23,1971,-100.0
ITA,Italy,41.9,12.48,1971,232.6690023058109
JAM,Jamaica,18.0,-76.8,1971,17.797155708245114
JOR,Jordan,31.95,35.93,1971,-40.201794182181615
JPN,Japan,35.68,139.75,1971,234.94584741681646
KAZ,Kazakhstan,51.17,71.42,1971,-100.0
KEN,Kenya,-1.28,36.82,1971,-78.434900488536
KGZ,Kyrgyzstan,42.87,74.6,1971,-100.0
KOR,South Korea,37.55,126.98,1971,-56.543712894000244
KWT,Kuwait,29.37,47.97,1971,551.9943648229143
LBN,Lebanon,33.87,35.5,1971,-100.0
LKA,Sri Lanka,6.92,79.83,1971,-72.98518947188944
LTU,Lithuania,54.68,25.32,1971,-100.0
LVA,Latvia,56.95,24.1,1971,-100.0
MAR,Morocco,34.02,-6.82,1971,-60.10326732292983
MDA,Moldova,47.0,28.85,1971,-100.0
MEX,Mexico,19.43,-99.13,1971,8.98412025956173
MKD,North Macedonia,41.6,21.74,1971,-100.0
MNE,Montenegro,42.43,19.27,1971,-100.0
MNG,Mongolia,47.92,106.92,1971,-100.0
MOZ,Mozambique,-25.95,32.58,1971,-100.0
MUS,Mauritius,-20.15,57.48,1971,-100.0
MYS,Malaysia,3.17,101.7,1971,-41.966421286592194
NAM,Namibia,-22.57,17.08,1971,-100.0
NER,Niger,13.52,2.12,1971,-79.13901988915119
NGA,Nigeria,9.08,7.53,1971,-76.69191639848862
NLD,Netherlands,52.35,4.92,1971,387.488698383697
NOR,Norway,59.92,10.75,1971,439.1058447722366
NZL,New Zealand,-41.3,174.78,1971,300.0956492528351
PAK,Pakistan,33.68,73.05,1971,-74.72095922381581
PAN,Panama,8.97,-79.53,1971,41.03309592854595
PER,Peru,-12.05,-77.05,1971,-100.0
PHL,Philippines,14.6,120.97,1971,-68.54837152743931
POL,Poland,52.25,21.0,1971,-100.0
PRI,Puerto Rico,18.47,-66.12,1971,194.96831415279044
PRK,North Korea,39.02,125.75,1971,-100.0
PRT,Portugal,38.72,-9.13,1971,53.599030067803255
PRY,Paraguay,-25.27,-57.67,1971,-61.08008870452096
QAT,Qatar,25.28,51.53,1971,320.3015674622919
ROU,Romania,44.43,26.1,1971,-100.0
RUS,Russia,55.75,37.6,1971,-100.0
SAU,Saudi Arabia,24.65,46.7,1971,62.064334419051704
SDN,Sudan,15.6,32.53,1971,-78.07129784723473
SEN,Senegal,14.73,-17.63,1971,-57.03573075385634
SGP,Singapore,1.28,103.85,1971,54.590280125636525
SMR,San Marino,43.93,12.42,1971,-100.0
SRB,Serbia,44.83,20.5,1971,-100.0
SUR,Suriname,5.83,-55.17,1971,10.784819054577575
SVK,Slovakia,48.15,17.12,1971,-100.0
SVN,Slovenia,46.05,14.52,1971,-100.0
SWE,Sweden,59.33,18.05,1971,640.5821083466234
SYR,Syria,33.5,36.3,1971,-53.711363747673204
TGO,Togo,6.12,1.22,1971,-81.76503896521598
THA,Thailand,13.75,100.52,1971,-71.09070428129985
TJK,Tajikistan,38.55,68.77,1971,-100.0
TKM,Turkmenistan,37.95,58.38,1971,-100.0
TON,Tonga,-21.13,-175.2,1971,-100.0
TTO,Trinidad and Tobago,10.65,-61.52,1971,29.373282657293398
TUN,Tunisia,36.8,10.18,1971,-53.0793877282686
TUR,Turkey,39.93,32.87,1971,-35.84577682468732
TZA,Tanzania,-6.8,39.28,1971,-100.0
UGA,Uganda,0.32,32.55,1971,-80.73916008440166
UKR,Ukraine,50.43,30.52,1971,-100.0
URY,Uruguay,-34.85,-56.17,1971,44.37766308146803
USA,United States,38.88,-90.0,1971,709.3592793899095
UZB,Uzbekistan,41.32,69.25,1971,-100.0
VEN,Venezuela,10.48,-66.87,1971,60.07606283288837
VIR,United States Virgin Islands,18.35,-64.93,1971,-100.0
VNM,Vietnam,21.03,105.85,1971,-100.0
WSM,Samoa,-13.82,-171.77,1971,-100.0
XKX,Kosovo,42.67,21.17,1971,-100.0
ZAF,South Africa,-25.7,28.22,1971,46.66460826584314
ZMB,Zambia,-15.42,28.28,1971,-44.67756955248546
ZWE,Zimbabwe,-17.82,31.03,1971,-41.387831369283404
AFG,Afghanistan,34.52,69.18,1972,-82.47019209442125
ARE,United Arab Emirates,24.47,54.37,1972,-100.0
ARG,Argentina,-34.58,-58.67,1972,-100.0
ARM,Armenia,40.17,44.5,1972,-100.0
AUS,Australia,-35.27,149.13,1972,389.7198659408329
AUT,Austria,48.2,16.37,1972,262.5807088230003
AZE,Azerbaijan,40.38,49.87,1972,-100.0
BDI,Burundi,-3.37,29.35,1972,-91.44899516751282
BEL,Belgium,50.83,4.33,1972,375.1201659846694
BFA,Burkina Faso,12.37,-1.52,1972,-87.64097082868336
BGR,Bulgaria,42.68,23.32,1972,-100.0
BHR,Bahrain,26.23,50.57,1972,-100.0
BHS,Bahamas,25.08,-77.35,1972,287.30744712993567
BLR,Belarus,53.9,27.57,1972,-100.0
BMU,Bermuda,32.28,-64.78,1972,438.5508651147519
BRA,Brazil,-15.78,-47.92,1972,-100.0
BRB,Barbados,13.1,-59.62,1972,-100.0
BWA,Botswana,-24.63,25.9,1972,-67.453853851756
CAN,Canada,45.42,-75.7,1972,533.2331557171623
CHE,Switzerland,46.92,7.47,1972,-100.0
CHL,Chile,-33.45,-70.67,1972,44.63176517640237
CHN,China,39.92,116.38,1972,-83.64570725990818
CIV,Côte d'Ivoire,6.82,-5.27,1972,-61.65067771833953
CMR,Cameroon,3.87,11.52,1972,-72.7176322035408
COL,Colombia,4.6,-74.08,1972,-50.89744194291483
CRI,Costa Rica,9.93,-84.08,1972,-21.483522912835348
CUB,Cuba,23.12,-82.35,1972,10.014827544652903
CYP,Cyprus,35.17,33.37,1972,-100.0
CZE,Czech Republic,49.81,15.47,1972,-100.0
DEU,Germany,52.52,13.4,1972,372.43557702551414
DJI,Djibouti,11.58,43.15,1972,-100.0
DNK,Denmark,55.67,12.58,1972,477.1308264478686
DOM,Dominican Republic,18.47,-69.9,1972,-47.84209450856907
DZA,Algeria,36.75,3.05,1972,-41.891358982016584
ECU,Ecuador,-0.22,-78.5,1972,-39.53412867654122
EGY,Egypt,30.05,31.25,1972,-68.25985053695273
ERI,Eritrea,15.33,38.93,1972,-100.0
ESP,Spain,40.4,-3.68,1972,111.89156855861941
EST,Estonia,59.43,24.72,1972,-100.0
ETH,Ethiopia,9.03,38.7,1972,-100.0
FIN,Finland,60.17,24.93,1972,294.02697949467586
FJI,Fiji,-18.13,178.42,1972,-28.336974726808183
FRA,France,48.87,2.33,1972,379.3733484927075
GAB,Gabon,0.38,9.45,1972,-14.215912802161451
GBR,Great Britain,54.08,-1.65,1972,275.77177457242
GEO,Georgia,41.68,44.83,1972,-100.0
GHA,Ghana,5.55,-0.22,1972,-71.97859524296041
GRC,Greece,37.98,23.73,1972,135.55935122069639
GRD,Grenada,12.05,-61.75,1972,-100.0
GTM,Guatemala,14.62,-90.52,1972,-54.47730722008862
GUY,Guyana,6.8,-58.15,1972,-50.986721575736624
HKG,Hong Kong,22.4,114.11,1972,71.7058138296107
HRV,Croatia,45.8,16.0,1972,-100.0
HUN,Hungary,47.5,19.08,1972,-100.0
IDN,Indonesia,-6.17,106.82,1972,-88.7768061573606
IND,India,28.6,77.2,1972,-84.79642252738904
IRL,Ireland,53.32,-6.23,1972,157.9772190232682
IRN,Iran,35.7,51.42,1972,-29.362450509358485
IRQ,Iraq,33.33,44.4,1972,-51.451719663350126
ISL,Iceland,64.15,-21.95,1972,397.8381125531145
ISR,Israel,31.77,35.23,1972,-100.0
ITA,Italy,41.9,12.48,1972,231.21999779944557
JAM,Jamaica,18.0,-76.8,1972,21.40046071923195
JOR,Jordan,31.95,35.93,1972,-42.64899586610152
JPN,Japan,35.68,139.75,1972,275.8970140573506
KAZ,Kazakhstan,51.17,71.42,1972,-100.0
KEN,Kenya,-1.28,36.82,1972,-78.79484720992416
KGZ,Kyrgyzstan,42.87,74.6,1972,-100.0
KOR,South Korea,37.55,126.98,1972,-59.80060532708795
KWT,Kuwait,29.37,47.97,1972,503.9320762230103
LBN,Lebanon,33.87,35.5,1972,-100.0
LKA,Sri Lanka,6.92,79.83,1972,-75.47786085161454
LTU,Lithuania,54.68,25.32,1972,-100.0
LVA,Latvia,56.95,24.1,1972,-100.0
MAR,Morocco,34.02,-6.82,1972,-61.06416013049637
MDA,Moldova,47.0,28.85,1972,-100.0
MEX,Mexico,19.43,-99.13,1972,4.67664949884993
MKD,North Macedonia,41.6,21.74,1972,-100.0
MNE,Montenegro,42.43,19.27,1972,-100.0
MNG,Mongolia,47.92,106.92,1972,-100.0
MOZ,Mozambique,-25.95,32.58,1972,-100.0
MUS,Mauritius,-20.15,57.48,1972,-100.0
MYS,Malaysia,3.17,101.7,1972,-42.103398109968346
NAM,Namibia,-22.57,17.08,1972,-100.0
NER,Niger,13.52,2.12,1972,-81.30335689323644
NGA,Nigeria,9.08,7.53,1972,-73.8361076036138
NLD,Netherlands,52.35,4.92,1972,408.9497068547266
NOR,Norway,59.92,10.75,1972,447.2816692077829
NZL,New Zealand,-41.3,174.78,1972,308.53491982821697
PAK,Pakistan,33.68,73.05,1972,-81.32319681164128
PAN,Panama,8.97,-79.53,1972,29.475307510002906
PER,Peru,-12.05,-77.05,1972,-100.0
PHL,Philippines,14.6,120.97,1972,-71.47143732873661
POL,Poland,52.25,21.0,1972,-100.0
PRI,Puerto Rico,18.47,-66.12,1972,178.5623743631927
PRK,North Korea,39.02,125.75,1972,-100.0
PRT,Portugal,38.72,-9.13,1972,61.480815881714946
PRY,Paraguay,-25.27,-57.67,1972,-62.18139553566907
QAT,Qatar,25.28,51.53,1972,326.540885775512
ROU,Romania,44.43,26.1,1972,-100.0
RUS,Russia,55.75,37.6,1972,-100.0
SAU,Saudi Arabia,24.65,46.7,1972,78.21330706639908
SDN,Sudan,15.6,32.53,1972,-80.15264162575556
SEN,Senegal,14.73,-17.63,1972,-56.62249839761223
SGP,Singapore,1.28,103.85,1972,56.78247520446816
SMR,San Marino,43.93,12.42,1972,-100.0
SRB,Serbia,44.83,20.5,1972,-100.0
SUR,Suriname,5.83,-55.17,1972,-2.695120183449396
SVK,Slovakia,48.15,17.12,1972,-100.0
SVN,Slovenia,46.05,14.52,1972,-100.0
SWE,Sweden,59.33,18.05,1972,647.3610463461192
SYR,Syria,33.5,36.3,1972,-55.74458200819795
TGO,Togo,6.12,1.22,1972,-82.14159344584104
THA,Thailand,13.75,100.52,1972,-73.19751022995793
TJK,Tajikistan,38.55,68.77,1972,-100.0
TKM,Turkmenistan,37.95,58.38,1972,-100.0
TON,Tonga,-21.13,-175.2,1972,-100.0
TTO,Trinidad and Tobago,10.65,-61.52,1972,32.61125461286834
TUN,Tunisia,36.8,10.18,1972,-47.84829448307059
TUR,Turkey,39.93,32.87,1972,-31.14432318109341
TZA,Tanzania,-6.8,39.28,1972,-100.0
UGA,Uganda,0.32,32.55,1972,-83.01578985055441
UKR,Ukraine,50.43,30.52,1972,-100.0
URY,Uruguay,-34.85,-56.17,1972,-3.7962356549181604
USA,United States,38.88,-90.0,1972,655.6553722342437
UZB,Uzbekistan,41.32,69.25,1972,-100.0
VEN,Venezuela,10.48,-66.87,1972,43.698049016474435
VIR,United States Virgin Islands,18.35,-64.93,1972,-100.0
VNM,Vietnam,21.03,105.85,1972,-100.0
WSM,Samoa,-13.82,-171.77,1972,-100.0
XKX,Kosovo,42.67,21.17,1972,-100.0
ZAF,South Africa,-25.7,28.22,1972,28.276232441410226
ZMB,Zambia,-15.42,28.28,1972,-48.650571183566406
ZWE,Zimbabwe,-17.82,31.03,1972,-39.987966810051994
AFG,Afghanistan,34.52,69.18,1973,-85.21656061583643
ARE,United Arab Emirates,24.47,54.37,1973,-100.0
ARG,Argentina,-34.58,-58.67,1973,-100.0
ARM,Armenia,40.17,44.5,1973,-100.0
AUS,Australia,-35.27,149.13,1973,370.9908614590517
AUT,Austria,48.2,16.37,1973,284.1206309653591
AZE,Azerbaijan,40.38,49.87,1973,-100.0
BDI,Burundi,-3.37,29.35,1973,-91.58743909493403
BEL,Belgium,50.83,4.33,1973,383.8589894764945
BFA,Burkina Faso,12.37,-1.52,1973,-88.72335750995617
BGR,Bulgaria,42.68,23.32,1973,-100.0
BHR,Bahrain,26.23,50.57,1973,-100.0
BHS,Bahamas,25.08,-77.35,1973,242.19407023828063
BLR,Belarus,53.9,27.57,1973,-100.0
BMU,Bermuda,32.28,-64.78,1973,394.5541276392195
BRA,Brazil,-15.78,-47.92,1973,-100.0
BRB,Barbados,13.1,-59.62,1973,-100.0
BWA,Botswana,-24.63,25.9,1973,-63.32968551849958
CAN,Canada,45.42,-75.7,1973,478.3776308763655
CHE,Switzerland,46.92,7.47,1973,-100.0
CHL,Chile,-33.45,-70.67,1973,61.161604222751244
CHN,China,39.92,116.38,1973,-84.49091429906333
CIV,Côte d'Ivoire,6.82,-5.27,1973,-60.42315115580573
CMR,Cameroon,3.87,11.52,1973,-73.17774267470577
COL,Colombia,4.6,-74.08,1973,-54.526164148886465
CRI,Costa Rica,9.93,-84.08,1973,-24.76183060048502
CUB,Cuba,23.12,-82.35,1973,6.0519751040113885
CYP,Cyprus,35.17,33.37,1973,-100.0
CZE,Czech Republic,49.81,15.47,1973,-100.0
DEU,Germany,52.52,13.4,1973,398.2534429439117
DJI,Djibouti,11.58,43.15,1973,-100.0
DNK,Denmark,55.67,12.58,1973,504.14942877166436
DOM,Dominican Republic,18.47,-69.9,1973,-52.28011602554119
DZA,Algeria,36.75,3.05,1973,-41.85845273321913
ECU,Ecuador,-0.22,-78.5,1973,-42.827955703383985
EGY,Egypt,30.05,31.25,1973,-73.14121354039202
ERI,Eritrea,15.33,38.93,1973,-100.0
ESP,Spain,40.4,-3.68,1973,121.89474547800742
EST,Estonia,59.43,24.72,1973,-100.0
ETH,Ethiopia,9.03,38.7,1973,-100.0
FIN,Finland,60.17,24.93,1973,312.0061822813536
FJI,Fiji,-18.13,178.42,1973,-24.5337703294992
FRA,France,48.87,2.33,1973,392.0770574231872
GAB,Gabon,0.38,9.45,1973,12.324126193071834
GBR,Great Britain,54.08,-1.65,1973,238.26768193650295
GEO,Georgia,41.68,44.83,1973,-100.0
GHA,Ghana,5.55,-0.22,1973,-69.08154326206422
GRC,Greece,37.98,23.73,1973,147.09589905889155
GRD,Grenada,12.05,-61.75,1973,-100.0
GTM,Guatemala,14.62,-90.52,1973,-56.7040903731061
GUY,Guyana,6.8,-58.15,1973,-58.46637428526933
HKG,Hong Kong,22.4,114.11,1973,86.90872027054085
HRV,Croatia,45.8,16.0,1973,-100.0
HUN,Hungary,47.5,19.08,1973,-100.0
IDN,Indonesia,-6.17,106.82,1973,-87.11706287405167
IND,India,28.6,77.2,1973,-85.83656862526976
IRL,Ireland,53.32,-6.23,1973,139.34184984537342
IRN,Iran,35.7,51.42,1973,-13.701401094622561
IRQ,Iraq,33.33,44.4,1973,-53.37599005495362
ISL,Iceland,64.15,-21.95,1973,436.81438694462366
ISR,Israel,31.77,35.23,1973,-100.0
ITA,Italy,41.9,12.48,1973,216.4459669165906
JAM,Jamaica,18.0,-76.8,1973,-3.2718396110975227
JOR,Jordan,31.95,35.93,1973,-47.28056099405967
JPN,Japan,35.68,139.75,1973,300.9329182147863
KAZ,Kazakhstan,51.17,71.42,1973,-100.0
KEN,Kenya,-1.28,36.82,1973,-80.5882205708946
KGZ,Kyrgyzstan,42.87,74.6,1973,-100.0
KOR,South Korea,37.55,126.98,1973,-59.827824993881684
KWT,Kuwait,29.37,47.97,1973,450.21366832046635
LBN,Lebanon,33.87,35.5,1973,-100.0
LKA,Sri Lanka,6.92,79.83,1973,-78.44287438538723
LTU,Lithuania,54.68,25.32,1973,-100.0
LVA,Latvia,56.95,24.1,1973,-100.0
MAR,Morocco,34.02,-6.82,1973,-62.801493981800796
MDA,Moldova,47.0,28.85,1973,-100.0
MEX,Mexico,19.43,-99.13,1973,-1.1798062162102056
MKD,North Macedonia,41.6,21.74,1973,-100.0
MNE,Montenegro,42.43,19.27,1973,-100.0
MNG,Mongolia,47.92,106.92,1973,-100.0
MOZ,Mozambique,-25.95,32.58,1973,-100.0
MUS,Mauritius,-20.15,57.48,1973,-100.0
MYS,Malaysia,3.17,101.7,1973,-31.613511469063578
NAM,Namibia,-22.57,17.08,1973,-100.0
NER,Niger,13.52,2.12,1973,-81.5320544196498
NGA,Nigeria,9.08,7.53,1973,-74.88473924844817
NLD,Netherlands,52.35,4.92,1973,427.7551616348143
NOR,Norway,59.92,10.75,1973,461.71837108149595
NZL,New Zealand,-41.3,174.78,1973,326.8182526086279
PAK,Pakistan,33.68,73.05,1973,-90.19637016931053
PAN,Panama,8.97,-79.53,1973,14.748870892384353
PER,Peru,-12.05,-77.05,1973,-100.0
PHL,Philippines,14.6,120.97,1973,-72.11543595790599
POL,Poland,52.25,21.0,1973,-100.0
PRI,Puerto Rico,18.47,-66.12,1973,140.14549080027584
PRK,North Korea,39.02,125.75,1973,-100.0
PRT,Portugal,38.72,-9.13,1973,72.57449051104633
PRY,Paraguay,-25.27,-57.67,1973,-61.951451153580884
QAT,Qatar,25.28,51.53,1973,378.6925851558502
ROU,Romania,44.43,26.1,1973,-100.0
RUS,Russia,55.75,37.6,1973,-100.0
SAU,Saudi Arabia,24.65,46.7,1973,108.17953645404586
SDN,Sudan,15.6,32.53,1973,-81.0157101697555
SEN,Senegal,14.73,-17.63,1973,-61.44892873829176
SGP,Singapore,1.28,103.85,1973,66.40106681202303
SMR,San Marino,43.93,12.42,1973,-100.0
SRB,Serbia,44.83,20.5,1973,-100.0
SUR,Suriname,5.83,-55.17,1973,-15.441964980977602
SVK,Slovakia,48.15,17.12,1973,-100.0
SVN,Slovenia,46.05,14.52,1973,-100.0
SWE,Sweden,59.33,18.05,1973,620.8303946870759
SYR,Syria,33.5,36.3,1973,-63.63870224931586
TGO,Togo,6.12,1.22,1973,-83.2153564197833
THA,Thailand,13.75,100.52,1973,-72.47282910984048
TJK,Tajikistan,38.55,68.77,1973,-100.0
TKM,Turkmenistan,37.95,58.38,1973,-100.0
TON,Tonga,-21.13,-175.2,1973,-100.0
TTO,Trinidad and Tobago,10.65,-61.52,1973,25.870511380069853
TUN,Tunisia,36.8,10.18,1973,-50.65506318552963
TUR,Turkey,39.93,32.87,1973,-32.50008343159722
TZA,Tanzania,-6.8,39.28,1973,-100.0
UGA,Uganda,0.32,32.55,1973,-84.9263020891272
UKR,Ukraine,50.43,30.52,1973,-100.0
URY,Uruguay,-34.85,-56.17,1973,37.990285781030984
USA,United States,38.88,-90.0,1973,564.0759672503169
UZB,Uzbekistan,41.32,69.25,1973,-100.0
VEN,Venezuela,10.48,-66.87,1973,35.36413720604265
VIR,United States Virgin Islands,18.35,-64.93,1973,-100.0
VNM,Vietnam,21.03,105.85,1973,-100.0
WSM,Samoa,-13.82,-171.77,1973,-100.0
XKX,Kosovo,42.67,21.17,1973,-100.0
ZAF,South Africa,-25.7,28.22,1973,34.68489276258704
ZMB,Zambia,-15.42,28.28,1973,-48.32213495895165
ZWE,Zimbabwe,-17.82,31.03,1973,-42.80722295147619
AFG,Afghanistan,34.52,69.18,1974,-86.01572489812172
ARE,United Arab Emirates,24.47,54.37,1974,-100.0
ARG,Argentina,-34.58,-58.67,1974,-100.0
ARM,Armenia,40.17,44.5,1974,-100.0
AUS,Australia,-35.27,149.13,1974,399.21628942020726
AUT,Austria,48.2,16.37,1974,256.59593486108986
AZE,Azerbaijan,40.38,49.87,1974,-100.0
BDI,Burundi,-3.37,29.35,1974,-92.73603155088007
BEL,Belgium,50.83,4.33,1974,341.5365450393709
BFA,Burkina Faso,12.37,-1.52,1974,-90.38889110426526
BGR,Bulgaria,42.68,23.32,1974,-100.0
BHR,Bahrain,26.23,50.57,1974,-100.0
BHS,Bahamas,25.08,-77.35,1974,146.24183091011128
BLR,Belarus,53.9,27.57,1974,-100.0
BMU,Bermuda,32.28,-64.78,1974,350.7872662287356
BRA,Brazil,-15.78,-47.92,1974,-100.0
BRB,Barbados,13.1,-59.62,1974,-2.334161514530748
BWA,Botswana,-24.63,25.9,1974,-65.92180009038977
CAN,Canada,45.42,-75.7,1974,443.4084468842266
CHE,Switzerland,46.92,7.47,1974,-100.0
CHL,Chile,-33.45,-70.67,1974,19.18976323065648
CHN,China,39.92,116.38,1974,-87.66750188565084
CIV,Côte d'Ivoire,6.82,-5.27,1974,-63.89962462686927
CMR,Cameroon,3.87,11.52,1974,-76.90900477946462
COL,Colombia,4.6,-74.08,1974,-58.39909174951702
CRI,Costa Rica,9.93,-84.08,1974,-37.648306442781646
CUB,Cuba,23.12,-82.35,1974,-6.691156477439739
CYP,Cyprus,35.17,33.37,1974,-100.0
CZE,Czech Republic,49.81,15.47,1974,-100.0
DEU,Germany,52.52,13.4,1974,334.24254428138676
DJI,Djibouti,11.58,43.15,1974,-100.0
DNK,Denmark,55.67,12.58,1974,421.38783395397815
DOM,Dominican Republic,18.47,-69.9,1974,-54.74670095611346
DZA,Algeria,36.75,3.05,1974,-32.871629214975975
ECU,Ecuador,-0.22,-78.5,1974,-26.46935701249712
EGY,Egypt,30.05,31.25,1974,-81.2636895647687
ERI,Eritrea,15.33,38.93,1974,-100.0
ESP,Spain,40.4,-3.68,1974,111.76011997883893
EST,Estonia,59.43,24.72,1974,-100.0
ETH,Ethiopia,9.03,38.7,1974,-100.0
FIN,Finland,60.17,24.93,1974,307.9473327228053
FJI,Fiji,-18.13,178.42,1974,-24.0421304089112
FRA,France,48.87,2.33,1974,311.6674887259537
GAB,Gabon,0.38,9.45,1974,83.24790797872076
GBR,Great Britain,54.08,-1.65,1974,182.2929224943367
GEO,Georgia,41.68,44.83,1974,-100.0
GHA,Ghana,5.55,-0.22,1974,-77.52890243678908
GRC,Greece,37.98,23.73,1974,117.83049666540866
GRD,Grenada,12.05,-61.75,1974,-100.0
GTM,Guatemala,14.62,-90.52,1974,-59.38553758682463
GUY,Guyana,6.8,-58.15,1974,-54.70126746321638
HKG,Hong Kong,22.4,114.11,1974,65.14766644404847
HRV,Croatia,45.8,16.0,1974,-100.0
HUN,Hungary,47.5,19.08,1974,-100.0
IDN,Indonesia,-6.17,106.82,1974,-84.47021608041962
IND,India,28.6,77.2,1974,-87.43032365154409
IRL,Ireland,53.32,-6.23,1974,93.81851063970552
IRN,Iran,35.7,51.42,1974,11.563096897561627
IRQ,Iraq,33.33,44.4,1974,-21.119755738667365
ISL,Iceland,64.15,-21.95,1974,442.16403121436787
ISR,Israel,31.77,35.23,1974,-100.0
ITA,Italy,41.9,12.48,1974,178.84998780378066
JAM,Jamaica,18.0,-76.8,1974,-7.387289995727069
JOR,Jordan,31.95,35.93,1974,-49.5434109305963
JPN,Japan,35.68,139.75,1974,242.54697478627332
KAZ,Kazakhstan,51.17,71.42,1974,-100.0
KEN,Kenya,-1.28,36.82,1974,-82.6790583773927
KGZ,Kyrgyzstan,42.87,74.6,1974,-100.0
KOR,South Korea,37.55,126.98,1974,-56.61871487531314
KWT,Kuwait,29.37,47.97,1974,872.0364895264175
LBN,Lebanon,33.87,35.5,1974,-100.0
LKA,Sri Lanka,6.92,79.83,1974,-79.48562286816974
LTU,Lithuania,54.68,25.32,1974,-100.0
LVA,Latvia,56.95,24.1,1974,-100.0
MAR,Morocco,34.02,-6.82,1974,-65.18870373042346
MDA,Moldova,47.0,28.85,1974,-100.0
MEX,Mexico,19.43,-99.13,1974,-2.636794780777348
MKD,North Macedonia,41.6,21.74,1974,-100.0
MNE,Montenegro,42.43,19.27,1974,-100.0
MNG,Mongolia,47.92,106.92,1974,-100.0
MOZ,Mozambique,-25.95,32.58,1974,-100.0
MUS,Mauritius,-20.15,57.48,1974,-100.0
MYS,Malaysia,3.17,101.7,1974,-35.487520322965
NAM,Namibia,-22.57,17.08,1974,-100.0
NER,Niger,13.52,2.12,1974,-84.7944110043123
NGA,Nigeria,9.08,7.53,1974,-68.7148048147572
NLD,Netherlands,52.35,4.92,1974,395.9935916613218
NOR,Norway,59.92,10.75,1974,424.52813537828763
NZL,New Zealand,-41.3,174.78,1974,255.04118533296798
PAK,Pakistan,33.68,73.05,1974,-89.64039356026605
PAN,Panama,8.97,-79.53,1974,-0.32815729424479645
PER,Peru,-12.05,-77.05,1974,-100.0
PHL,Philippines,14.6,120.97,1974,-70.96029744675484
POL,Poland,52.25,21.0,1974,-100.0
PRI,Puerto Rico,18.47,-66.12,1974,101.33197827015854
PRK,North Korea,39.02,125.75,1974,-100.0
PRT,Portugal,38.72,-9.13,1974,54.04418281552517
PRY,Paraguay,-25.27,-57.67,1974,-61.22289884195027
QAT,Qatar,25.28,51.53,1974,931.3626204803717
ROU,Romania,44.43,26.1,1974,-100.0
RUS,Russia,55.75,37.6,1974,-100.0
SAU,Saudi Arabia,24.65,46.7,1974,367.30349598562356
SDN,Sudan,15.6,32.53,1974,-81.6025156134926
SEN,Senegal,14.73,-17.63,1974,-67.08458948487413
SGP,Singapore,1.28,103.85,1974,80.32553330847693
SMR,San Marino,43.93,12.42,1974,-100.0
SRB,Serbia,44.83,20.5,1974,-100.0
SUR,Suriname,5.83,-55.17,1974,-20.001629777878417
SVK,Slovakia,48.15,17.12,1974,-100.0
SVN,Slovenia,46.05,14.52,1974,-100.0
SWE,Sweden,59.33,18.05,1974,522.9709635982169
SYR,Syria,33.5,36.3,1974,-54.88377149400632
TGO,Togo,6.12,1.22,1974,-82.38720593996915
THA,Thailand,13.75,100.52,1974,-73.55385683789613
TJK,Tajikistan,38.55,68.77,1974,-100.0
TKM,Turkmenistan,37.95,58.38,1974,-100.0
TON,Tonga,-21.13,-175.2,1974,-100.0
TTO,Trinidad and Tobago,10.65,-61.52,1974,51.15800092775865
TUN,Tunisia,36.8,10.18,1974,-51.354590172866
TUR,Turkey,39.93,32.87,1974,-29.828355250073834
TZA,Tanzania,-6.8,39.28,1974,-100.0
UGA,Uganda,0.32,32.55,1974,-85.85709270258278
UKR,Ukraine,50.43,30.52,1974,-100.0
URY,Uruguay,-34.85,-56.17,1974,10.41031827269864
USA,United States,38.88,-90.0,1974,456.42090727362853
UZB,Uzbekistan,41.32,69.25,1974,-100.0
VEN,Venezuela,10.48,-66.87,1974,57.0720555963944
VIR,United States Virgin Islands,18.35,-64.93,1974,-100.0
VNM,Vietnam,21.03,105.85,1974,-100.0
WSM,Samoa,-13.82,-171.77,1974,-100.0
XKX,Kosovo,42.67,21.17,1974,-100.0
ZAF,South Africa,-25.7,28.22,1974,27.096731113150224
ZMB,Zambia,-15.42,28.28,1974,-53.15883888232089
ZWE,Zimbabwe,-17.82,31.03,1974,-48.05642661221927
AFG,Afghanistan,34.52,69.18,1975,-87.56549788226637
ARE,United Arab Emirates,24.47,54.37,1975,1630.389326039574
ARG,Argentina,-34.58,-58.67,1975,-100.0
ARM,Armenia,40.17,44.5,1975,-100.0
AUS,Australia,-35.27,149.13,1975,347.3623047313693
AUT,Austria,48.2,16.37,1975,237.61777923426916
AZE,Azerbaijan,40.38,49.87,1975,-100.0
BDI,Burundi,-3.37,29.35,1975,-92.82750170647604
BEL,Belgium,50.83,4.33,1975,328.0491282772781
BFA,Burkina Faso,12.37,-1.52,1975,-90.21885596502518
BGR,Bulgaria,42.68,23.32,1975,-100.0
BHR,Bahrain,26.23,50.57,1975,-100.0
BHS,Bahamas,25.08,-77.35,1975,88.63625799626692
BLR,Belarus,53.9,27.57,1975,-100.0
BMU,Bermuda,32.28,-64.78,1975,315.7883655429124
BRA,Brazil,-15.78,-47.92,1975,-100.0
BRB,Barbados,13.1,-59.62,1975,3.966413504650469
BWA,Botswana,-24.63,25.9,1975,-68.83422061291114
CAN,Canada,45.42,-75.7,1975,381.3935064485632
CHE,Switzerland,46.92,7.47,1975,-100.0
CHL,Chile,-33.45,-70.67,1975,-54.24394489640262
CHN,China,39.92,116.38,1975,-88.60857293020695
CIV,Côte d'Ivoire,6.82,-5.27,1975,-63.712102542221984
CMR,Cameroon,3.87,11.52,1975,-75.3302850572195
COL,Colombia,4.6,-74.08,1975,-64.25056688111597
CRI,Costa Rica,9.93,-84.08,1975,-40.6916342459709
CUB,Cuba,23.12,-82.35,1975,-12.539466663036109
CYP,Cyprus,35.17,33.37,1975,-37.63714258690673
CZE,Czech Republic,49.81,15.47,1975,-100.0
DEU,Germany,52.52,13.4,1975,298.3460811986913
DJI,Djibouti,11.58,43.15,1975,-100.0
DNK,Denmark,55.67,12.58,1975,410.9413378280381
DOM,Dominican Republic,18.47,-69.9,1975,-54.97914353705148
DZA,Algeria,36.75,3.05,1975,-36.80293804764747
ECU,Ecuador,-0.22,-78.5,1975,-30.49913667096318
EGY,Egypt,30.05,31.25,1975,-80.83820675862276
ERI,Eritrea,15.33,38.93,1975,-100.0
ESP,Spain,40.4,-3.68,1975,105.02780231975184
EST,Estonia,59.43,24.72,1975,-100.0
ETH,Ethiopia,9.03,38.7,1975,-100.0
FIN,Finland,60.17,24.93,1975,299.57119935052845
FJI,Fiji,-18.13,178.42,1975,-24.091858161537683
FRA,France,48.87,2.33,1975,329.07495713642845
GAB,Gabon,0.38,9.45,1975,107.76036512139893
GBR,Great Britain,54.08,-1.65,1975,174.6455564839222
GEO,Georgia,41.68,44.83,1975,-100.0
GHA,Ghana,5.55,-0.22,1975,-82.41974614545732
GRC,Greece,37.98,23.73,1975,101.41249015113966
GRD,Grenada,12.05,-61.75,1975,-100.0
GTM,Guatemala,14.62,-90.52,1975,-62.016866058918694
GUY,Guyana,6.8,-58.15,1975,-57.61142294462226
HKG,Hong Kong,22.4,114.11,1975,43.854293185449336
HRV,Croatia,45.8,16.0,1975,-100.0
HUN,Hungary,47.5,19.08,1975,-100.0
IDN,Indonesia,-6.17,106.82,1975,-85.1701938836276
IND,India,28.6,77.2,1975,-89.91225705319941
IRL,Ireland,53.32,-6.23,1975,89.92525092140109
IRN,Iran,35.7,51.42,1975,0.6545065091992445
IRQ,Iraq,33.33,44.4,1975,-26.003630126317915
ISL,Iceland,64.15,-21.95,1975,312.25928431825133
ISR,Israel,31.77,35.23,1975,-100.0
ITA,Italy,41.9,12.48,1975,162.3330551831859
JAM,Jamaica,18.0,-76.8,1975,-8.786184984102388
JOR,Jordan,31.95,35.93,1975,-53.851115040625864
JPN,Japan,35.68,139.75,1975,205.05952978930492
KAZ,Kazakhstan,51.17,71.42,1975,-100.0
KEN,Kenya,-1.28,36.82,1975,-84.74989787533312
KGZ,Kyrgyzstan,42.87,74.6,1975,-100.0
KOR,South Korea,37.55,126.98,1975,-60.55988248001335
KWT,Kuwait,29.37,47.97,1975,600.6896556274064
LBN,Lebanon,33.87,35.5,1975,-100.0
LKA,Sri Lanka,6.92,79.83,1975,-82.27538915780602
LTU,Lithuania,54.68,25.32,1975,-100.0
LVA,Latvia,56.95,24.1,1975,-100.0
MAR,Morocco,34.02,-6.82,1975,-67.0022921147522
MDA,Moldova,47.0,28.85,1975,-100.0
MEX,Mexico,19.43,-99.13,1975,-4.228719909359013
MKD,North Macedonia,41.6,21.74,1975,-100.0
MNE,Montenegro,42.43,19.27,1975,-100.0
MNG,Mongolia,47.92,106.92,1975,-100.0
MOZ,Mozambique,-25.95,32.58,1975,-100.0
MUS,Mauritius,-20.15,57.48,1975,-100.0
MYS,Malaysia,3.17,101.7,1975,-48.87590894851988
NAM,Namibia,-22.57,17.08,1975,-100.0
NER,Niger,13.52,2.12,1975,-87.4549945244625
NGA,Nigeria,9.08,7.53,1975,-71.76862769817689
NLD,Netherlands,52.35,4.92,1975,368.55403826812636
NOR,Norway,59.92,10.75,1975,424.05738377685117
NZL,New Zealand,-41.3,174.78,1975,166.47086299736782
PAK,Pakistan,33.68,73.05,1975,-89.47024362198394
PAN,Panama,8.97,-79.53,1975,-10.337064479754373
PER,Peru,-12.05,-77.05,1975,-100.0
PHL,Philippines,14.6,120.97,1975,-74.5746464891156
POL,Poland,52.25,21.0,1975,-100.0
PRI,Puerto Rico,18.47,-66.12,1975,74.90445923287055
PRK,North Korea,39.02,125.75,1975,-100.0
PRT,Portugal,38.72,-9.13,1975,35.902522657701546
PRY,Paraguay,-25.27,-57.67,1975,-64.43708121914331
QAT,Qatar,25.28,51.53,1975,722.9102018448833
ROU,Romania,44.43,26.1,1975,-100.0
RUS,Russia,55.75,37.6,1975,-100.0
SAU,Saudi Arabia,24.65,46.7,1975,278.2977061039512
SDN,Sudan,15.6,32.53,1975,-82.09462354937541
SEN,Senegal,14.73,-17.63,1975,-64.185414612353
SGP,Singapore,1.28,103.85,1975,59.04243678001808
SMR,San Marino,43.93,12.42,1975,-100.0
SRB,Serbia,44.83,20.5,1975,-100.0
SUR,Suriname,5.83,-55.17,1975,-24.17489536682384
SVK,Slovakia,48.15,17.12,1975,-100.0
SVN,Slovenia,46.05,14.52,1975,-100.0
SWE,Sweden,59.33,18.05,1975,546.2408826258157
SYR,Syria,33.5,36.3,1975,-52.57170333148626
TGO,Togo,6.12,1.22,1975,-84.28872201212853
THA,Thailand,13.75,100.52,1975,-76.76171872680604
TJK,Tajikistan,38.55,68.77,1975,-100.0
TKM,Turkmenistan,37.95,58.38,1975,-100.0
TON,Tonga,-21.13,-175.2,1975,-77.7875475859564
TTO,Trinidad and Tobago,10.65,-61.52,1975,48.0285096204105
TUN,Tunisia,36.8,10.18,1975,-52.07028636110454
TUR,Turkey,39.93,32.87,1975,-25.870770597860087
TZA,Tanzania,-6.8,39.28,1975,-100.0
UGA,Uganda,0.32,32.55,1975,-87.15222809903456
UKR,Ukraine,50.43,30.52,1975,-100.0
URY,Uruguay,-34.85,-56.17,1975,-21.31138927991779
USA,United States,38.88,-90.0,1975,398.3164888858794
UZB,Uzbekistan,41.32,69.25,1975,-100.0
VEN,Venezuela,10.48,-66.87,1975,33.139299964871874
VIR,United States Virgin Islands,18.35,-64.93,1975,-100.0
VNM,Vietnam,21.03,105.85,1975,-100.0
WSM,Samoa,-13.82,-171.77,1975,-100.0
XKX,Kosovo,42.67,21.17,1975,-100.0
ZAF,South Africa,-25.7,28.22,1975,6.318282657447259
ZMB,Zambia,-15.42,28.28,1975,-68.34877233585368
ZWE,Zimbabwe,-17.82,31.03,1975,-54.20498128469142
AFG,Afghanistan,34.52,69.18,1976,-87.97037080078158
ARE,United Arab Emirates,24.47,54.37,1976,1729.7278330550575
ARG,Argentina,-34.58,-58.67,1976,-100.0
ARM,Armenia,40.17,44.5,1976,-100.0
AUS,Australia,-35.27,149.13,1976,337.8903178226117
AUT,Austria,48.2,16.37,1976,232.12877983444264
AZE,Azerbaijan,40.38,49.87,1976,-100.0
BDI,Burundi,-3.37,29.35,1976,-93.15375067939654
BEL,Belgium,50.83,4.33,1976,323.6456739991194
BFA,Burkina Faso,12.37,-1.52,1976,-90.89018939184973
BGR,Bulgaria,42.68,23.32,1976,-100.0
BHR,Bahrain,26.23,50.57,1976,-100.0
BHS,Bahamas,25.08,-77.35,1976,82.2277967391108
BLR,Belarus,53.9,27.57,1976,-100.0
BMU,Bermuda,32.28,-64.78,1976,324.71194589245215
BRA,Brazil,-15.78,-47.92,1976,-100.0
BRB,Barbados,13.1,-59.62,1976,2.6598156347166517
BWA,Botswana,-24.63,25.9,1976,-71.60897547867646
CAN,Canada,45.42,-75.7,1976,416.9897943814438
CHE,Switzerland,46.92,7.47,1976,-100.0
CHL,Chile,-33.45,-70.67,1976,-44.03388584007325
CHN,China,39.92,116.38,1976,-90.32576131885678
CIV,Côte d'Ivoire,6.82,-5.27,1976,-61.82360588160716
CMR,Cameroon,3.87,11.52,1976,-77.69017617806254
COL,Colombia,4.6,-74.08,1976,-62.47576888822594
CRI,Costa Rica,9.93,-84.08,1976,-34.89833965139273
CUB,Cuba,23.12,-82.35,1976,-15.991461455023062
CYP,Cyprus,35.17,33.37,1976,-32.303140314740226
CZE,Czech Republic,49.81,15.47,1976,-100.0
DEU,Germany,52.52,13.4,1976,288.0726678111841
DJI,Djibouti,11.58,43.15,1976,-100.0
DNK,Denmark,55.67,12.58,1976,413.98575025409485
DOM,Dominican Republic,18.47,-69.9,1976,-55.852951198589636
DZA,Algeria,36.75,3.05,1976,-37.157806642037
ECU,Ecuador,-0.22,-78.5,1976,-27.195797378601018
EGY,Egypt,30.05,31.25,1976,-80.35614836117321
ERI,Eritrea,15.33,38.93,1976,-100.0
ESP,Spain,40.4,-3.68,1976,91.80669679238059
EST,Estonia,59.43,24.72,1976,-100.0
ETH,Ethiopia,9.03,38.7,1976,-100.0
FIN,Finland,60.17,24.93,1976,294.2041698725157
FJI,Fiji,-18.13,178.42,1976,-30.747892391332744
FRA,France,48.87,2.33,1976,303.52629902004054
GAB,Gabon,0.38,9.45,1976,159.36435038295403
GBR,Great Britain,54.08,-1.65,1976,142.0413801883096
GEO,Georgia,41.68,44.83,1976,-100.0
GHA,Ghana,5.55,-0.22,1976,-84.60953794335421
GRC,Greece,37.98,23.73,1976,98.31253457051578
GRD,Grenada,12.05,-61.75,1976,-100.0
GTM,Guatemala,14.62,-90.52,1976,-59.27812300734263
GUY,Guyana,6.8,-58.15,1976,-64.72704728506514
HKG,Hong Kong,22.4,114.11,1976,66.69695878866368
HRV,Croatia,45.8,16.0,1976,-100.0
HUN,Hungary,47.5,19.08,1976,-100.0
IDN,Indonesia,-6.17,106.82,1976,-83.79535775930637
IND,India,28.6,77.2,1976,-90.57492853035419
IRL,Ireland,53.32,-6.23,1976,70.76610501023036
IRN,Iran,35.7,51.42,1976,17.62505571305584
IRQ,Iraq,33.33,44.4,1976,-13.45533697367862
ISL,Iceland,64.15,-21.95,1976,343.54571164413363
ISR,Israel,31.77,35.23,1976,-100.0
ITA,Italy,41.9,12.48,1976,135.8958405375979
JAM,Jamaica,18.0,-76.8,1976,-14.51868436922387
JOR,Jordan,31.95,35.93,1976,-48.62534736649249
JPN,Japan,35.68,139.75,1976,210.60681571646523
KAZ,Kazakhstan,51.17,71.42,1976,-100.0
KEN,Kenya,-1.28,36.82,1976,-85.58924470217616
KGZ,Kyrgyzstan,42.87,74.6,1976,-100.0
KOR,South Korea,37.55,126.98,1976,-51.21177320978242
KWT,Kuwait,29.37,47.97,1976,557.1791052239521
LBN,Lebanon,33.87,35.5,1976,-100.0
LKA,Sri Lanka,6.92,79.83,1976,-84.89906322431949
LTU,Lithuania,54.68,25.32,1976,-100.0
LVA,Latvia,56.95,24.1,1976,-100.0
MAR,Morocco,34.02,-6.82,1976,-68.54351689778942
MDA,Moldova,47.0,28.85,1976,-100.0
MEX,Mexico,19.43,-99.13,1976,-14.009236854636459
MKD,North Macedonia,41.6,21.74,1976,-100.0
MNE,Montenegro,42.43,19.27,1976,-100.0
MNG,Mongolia,47.92,106.92,1976,-100.0
MOZ,Mozambique,-25.95,32.58,1976,-100.0
MUS,Mauritius,-20.15,57.48,1976,-54.57436076588231
MYS,Malaysia,3.17,101.7,1976,-45.732434155069626
NAM,Namibia,-22.57,17.08,1976,-100.0
NER,Niger,13.52,2.12,1976,-88.65587308217819
NGA,Nigeria,9.08,7.53,1976,-67.15496534827103
NLD,Netherlands,52.35,4.92,1976,363.57325739268407
NOR,Norway,59.92,10.75,1976,422.15153297643104
NZL,New Zealand,-41.3,174.78,1976,155.82570806004492
PAK,Pakistan,33.68,73.05,1976,-89.03313329676934
PAN,Panama,8.97,-79.53,1976,-14.909982173195143
PER,Peru,-12.05,-77.05,1976,-100.0
PHL,Philippines,14.6,120.97,1976,-73.92517772639877
POL,Poland,52.25,21.0,1976,-100.0
PRI,Puerto Rico,18.47,-66.12,1976,72.33831502080551
PRK,North Korea,39.02,125.75,1976,-100.0
PRT,Portugal,38.72,-9.13,1976,27.11505103358479
PRY,Paraguay,-25.27,-57.67,1976,-64.28837261693592
QAT,Qatar,25.28,51.53,1976,810.4558210123874
ROU,Romania,44.43,26.1,1976,-100.0
RUS,Russia,55.75,37.6,1976,-100.0
SAU,Saudi Arabia,24.65,46.7,1976,349.9860406718282
SDN,Sudan,15.6,32.53,1976,-80.3122808943603
SEN,Senegal,14.73,-17.63,1976,-67.60358330887786
SGP,Singapore,1.28,103.85,1976,61.37027851845984
SMR,San Marino,43.93,12.42,1976,-100.0
SRB,Serbia,44.83,20.5,1976,-100.0
SUR,Suriname,5.83,-55.17,1976,-24.038509567185596
SVK,Slovakia,48.15,17.12,1976,-100.0
SVN,Slovenia,46.05,14.52,1976,-100.0
SWE,Sweden,59.33,18.05,1976,535.685216284735
SYR,Syria,33.5,36.3,1976,-51.61944820136385
TGO,Togo,6.12,1.22,1976,-85.90216596544167
THA,Thailand,13.75,100.52,1976,-76.27939844535895
TJK,Tajikistan,38.55,68.77,1976,-100.0
TKM,Turkmenistan,37.95,58.38,1976,-100.0
TON,Tonga,-21.13,-175.2,1976,-81.49143840229166
TTO,Trinidad and Tobago,10.65,-61.52,1976,36.9764575731298
TUN,Tunisia,36.8,10.18,1976,-55.534180939749064
TUR,Turkey,39.93,32.87,1976,-25.697869611829088
TZA,Tanzania,-6.8,39.28,1976,-100.0
UGA,Uganda,0.32,32.55,1976,-88.1160107906005
UKR,Ukraine,50.43,30.52,1976,-100.0
URY,Uruguay,-34.85,-56.17,1976,-25.797887436162544
USA,United States,38.88,-90.0,1976,402.56032229777975
UZB,Uzbekistan,41.32,69.25,1976,-100.0
VEN,Venezuela,10.48,-66.87,1976,35.46449221697774
VIR,United States Virgin Islands,18.35,-64.93,1976,-100.0
VNM,Vietnam,21.03,105.85,1976,-100.0
WSM,Samoa,-13.82,-171.77,1976,-100.0
XKX,Kosovo,42.67,21.17,1976,-100.0
ZAF,South Africa,-25.7,28.22,1976,-9.106608763624225
