WB_country_code,WB_country_name,Latitude,Longitude,year,medals_cumsum
AFG,Afghanistan,34.52,69.18,1960,0
ARE,United Arab Emirates,24.47,54.37,1960,0
ARG,Argentina,-34.58,-58.67,1960,2
ARM,Armenia,40.17,44.5,1960,0
AUS,Australia,-35.27,149.13,1960,22
AUT,Austria,48.2,16.37,1960,3
AZE,Azerbaijan,40.38,49.87,1960,0
BDI,Burundi,-3.37,29.35,1960,0
BEL,Belgium,50.83,4.33,1960,4
BFA,Burkina Faso,12.37,-1.52,1960,0
BGR,Bulgaria,42.68,23.32,1960,7
BHR,Bahrain,26.23,50.57,1960,0
BHS,Bahamas,25.08,-77.35,1960,0
BLR,Belarus,53.9,27.57,1960,0
BMU,Bermuda,32.28,-64.78,1960,0
BRA,Brazil,-15.78,-47.92,1960,2
BRB,Barbados,13.1,-59.62,1960,0
BWA,Botswana,-24.63,25.9,1960,0
CAN,Canada,45.42,-75.7,1960,1
CHE,Switzerland,46.92,7.47,1960,7
CHL,Chile,-33.45,-70.67,1960,0
CHN,China,39.92,116.38,1960,1
CIV,Côte d'Ivoire,6.82,-5.27,1960,0
CMR,Cameroon,3.87,11.52,1960,0
COL,Colombia,4.6,-74.08,1960,0
CRI,Costa Rica,9.93,-84.08,1960,0
CUB,Cuba,23.12,-82.35,1960,0
CYP,Cyprus,35.17,33.37,1960,0
CZE,Czech Republic,49.81,15.47,1960,9
DEU,Germany,52.52,13.4,1960,44
DJI,Djibouti,11.58,43.15,1960,0
DNK,Denmark,55.67,12.58,1960,7
DOM,Dominican Republic,18.47,-69.9,1960,0
DZA,Algeria,36.75,3.05,1960,0
ECU,Ecuador,-0.22,-78.5,1960,0
EGY,Egypt,30.05,31.25,1960,2
ERI,Eritrea,15.33,38.93,1960,0
ESP,Spain,40.4,-3.68,1960,1
EST,Estonia,59.43,24.72,1960,0
ETH,Ethiopia,9.03,38.7,1960,1
FIN,Finland,60.17,24.93,1960,6
FJI,Fiji,-18.13,178.42,1960,0
FRA,France,48.87,2.33,1960,5
GAB,Gabon,0.38,9.45,1960,0
GBR,Great Britain,54.08,-1.65,1960,20
GEO,Georgia,41.68,44.83,1960,0
GHA,Ghana,5.55,-0.22,1960,1
GRC,Greece,37.98,23.73,1960,1
GRD,Grenada,12.05,-61.75,1960,0
GTM,Guatemala,14.62,-90.52,1960,0
GUY,Guyana,6.8,-58.15,1960,0
HKG,Hong Kong,22.4,114.11,1960,0
HRV,Croatia,45.8,16.0,1960,0
HUN,Hungary,47.5,19.08,1960,24
IDN,Indonesia,-6.17,106.82,1960,0
IND,India,28.6,77.2,1960,1
IRL,Ireland,53.32,-6.23,1960,0
IRN,Iran,35.7,51.42,1960,4
IRQ,Iraq,33.33,44.4,1960,1
ISL,Iceland,64.15,-21.95,1960,0
ISR,Israel,31.77,35.23,1960,0
ITA,Italy,41.9,12.48,1960,38
JAM,Jamaica,18.0,-76.8,1960,2
JOR,Jordan,31.95,35.93,1960,0
JPN,Japan,35.68,139.75,1960,18
KAZ,Kazakhstan,51.17,71.42,1960,0
KEN,Kenya,-1.28,36.82,1960,0
KGZ,Kyrgyzstan,42.87,74.6,1960,0
KOR,South Korea,37.55,126.98,1960,0
KWT,Kuwait,29.37,47.97,1960,0
LBN,Lebanon,33.87,35.5,1960,0
LKA,Sri Lanka,6.92,79.83,1960,0
LTU,Lithuania,54.68,25.32,1960,0
LVA,Latvia,56.95,24.1,1960,0
MAR,Morocco,34.02,-6.82,1960,1
MDA,Moldova,47.0,28.85,1960,0
MEX,Mexico,19.43,-99.13,1960,1
MKD,North Macedonia,41.6,21.74,1960,0
MNE,Montenegro,42.43,19.27,1960,0
MNG,Mongolia,47.92,106.92,1960,0
MOZ,Mozambique,-25.95,32.58,1960,0
MUS,Mauritius,-20.15,57.48,1960,0
MYS,Malaysia,3.17,101.7,1960,0
NAM,Namibia,-22.57,17.08,1960,0
NER,Niger,13.52,2.12,1960,0
NGA,Nigeria,9.08,7.53,1960,0
NLD,Netherlands,52.35,4.92,1960,3
NOR,Norway,59.92,10.75,1960,2
NZL,New Zealand,-41.3,174.78,1960,3
PAK,Pakistan,33.68,73.05,1960,2
PAN,Panama,8.97,-79.53,1960,0
PER,Peru,-12.05,-77.05,1960,0
PHL,Philippines,14.6,120.97,1960,0
POL,Poland,52.25,21.0,1960,22
PRI,Puerto Rico,18.47,-66.12,1960,0
PRK,North Korea,39.02,125.75,1960,0
PRT,Portugal,38.72,-9.13,1960,2
PRY,Paraguay,-25.27,-57.67,1960,0
QAT,Qatar,25.28,51.53,1960,0
ROU,Romania,44.43,26.1,1960,10
RUS,Russia,55.75,37.6,1960,109
SAU,Saudi Arabia,24.65,46.7,1960,0
SDN,Sudan,15.6,32.53,1960,0
SEN,Senegal,14.73,-17.63,1960,0
SGP,Singapore,1.28,103.85,1960,1
SMR,San Marino,43.93,12.42,1960,0
SRB,Serbia,44.83,20.5,1960,0
SUR,Suriname,5.83,-55.17,1960,0
SVK,Slovakia,48.15,17.12,1960,0
SVN,Slovenia,46.05,14.52,1960,0
SWE,Sweden,59.33,18.05,1960,7
SYR,Syria,33.5,36.3,1960,0
TGO,Togo,6.12,1.22,1960,0
THA,Thailand,13.75,100.52,1960,0
TJK,Tajikistan,38.55,68.77,1960,0
TKM,Turkmenistan,37.95,58.38,1960,0
TON,Tonga,-21.13,-175.2,1960,0
TTO,Trinidad and Tobago,10.65,-61.52,1960,0
TUN,Tunisia,36.8,10.18,1960,0
TUR,Turkey,39.93,32.87,1960,9
TZA,Tanzania,-6.8,39.28,1960,0
UGA,Uganda,0.32,32.55,1960,0
UKR,Ukraine,50.43,30.52,1960,0
URY,Uruguay,-34.85,-56.17,1960,0
USA,United States,38.88,-90.0,1960,72
UZB,Uzbekistan,41.32,69.25,1960,0
VEN,Venezuela,10.48,-66.87,1960,1
VIR,United States Virgin Islands,18.35,-64.93,1960,0
VNM,Vietnam,21.03,105.85,1960,0
WSM,Samoa,-13.82,-171.77,1960,0
XKX,Kosovo,42.67,21.17,1960,0
YGL,Yugoslavia,44.83,20.5,1960,2
ZAF,South Africa,-25.7,28.22,1960,3
ZMB,Zambia,-15.42,28.28,1960,0
ZWE,Zimbabwe,-17.82,31.03,1960,0
AFG,Afghanistan,34.52,69.18,1964,0
ARE,United Arab Emirates,24.47,54.37,1964,0
ARG,Argentina,-34.58,-58.67,1964,3
ARM,Armenia,40.17,44.5,1964,0
AUS,Australia,-35.27,149.13,1964,40
AUT,Austria,48.2,16.37,1964,3
AZE,Azerbaijan,40.38,49.87,1964,0
BDI,Burundi,-3.37,29.35,1964,0
BEL,Belgium,50.83,4.33,1964,7
BFA,Burkina Faso,12.37,-1.52,1964,0
BGR,Bulgaria,42.68,23.32,1964,17
BHR,Bahrain,26.23,50.57,1964,0
BHS,Bahamas,25.08,-77.35,1964,2
BLR,Belarus,53.9,27.57,1964,0
BMU,Bermuda,32.28,-64.78,1964,0
BRA,Brazil,-15.78,-47.92,1964,3
BRB,Barbados,13.1,-59.62,1964,0
BWA,Botswana,-24.63,25.9,1964,0
CAN,Canada,45.42,-75.7,1964,6
CHE,Switzerland,46.92,7.47,1964,11
CHL,Chile,-33.45,-70.67,1964,0
CHN,China,39.92,116.38,1964,1
CIV,Côte d'Ivoire,6.82,-5.27,1964,0
CMR,Cameroon,3.87,11.52,1964,0
COL,Colombia,4.6,-74.08,1964,0
CRI,Costa Rica,9.93,-84.08,1964,0
CUB,Cuba,23.12,-82.35,1964,1
CYP,Cyprus,35.17,33.37,1964,0
CZE,Czech Republic,49.81,15.47,1964,24
DEU,Germany,52.52,13.4,1964,98
DJI,Djibouti,11.58,43.15,1964,0
DNK,Denmark,55.67,12.58,1964,14
DOM,Dominican Republic,18.47,-69.9,1964,0
DZA,Algeria,36.75,3.05,1964,0
ECU,Ecuador,-0.22,-78.5,1964,0
EGY,Egypt,30.05,31.25,1964,2
ERI,Eritrea,15.33,38.93,1964,0
ESP,Spain,40.4,-3.68,1964,1
EST,Estonia,59.43,24.72,1964,0
ETH,Ethiopia,9.03,38.7,1964,2
FIN,Finland,60.17,24.93,1964,11
FJI,Fiji,-18.13,178.42,1964,0
FRA,France,48.87,2.33,1964,21
GAB,Gabon,0.38,9.45,1964,0
GBR,Great Britain,54.08,-1.65,1964,39
GEO,Georgia,41.68,44.83,1964,0
GHA,Ghana,5.55,-0.22,1964,2
GRC,Greece,37.98,23.73,1964,1
GRD,Grenada,12.05,-61.75,1964,0
GTM,Guatemala,14.62,-90.52,1964,0
GUY,Guyana,6.8,-58.15,1964,0
HKG,Hong Kong,22.4,114.11,1964,0
HRV,Croatia,45.8,16.0,1964,0
HUN,Hungary,47.5,19.08,1964,46
IDN,Indonesia,-6.17,106.82,1964,0
IND,India,28.6,77.2,1964,2
IRL,Ireland,53.32,-6.23,1964,1
IRN,Iran,35.7,51.42,1964,6
IRQ,Iraq,33.33,44.4,1964,1
ISL,Iceland,64.15,-21.95,1964,0
ISR,Israel,31.77,35.23,1964,0
ITA,Italy,41.9,12.48,1964,66
JAM,Jamaica,18.0,-76.8,1964,2
JOR,Jordan,31.95,35.93,1964,0
JPN,Japan,35.68,139.75,1964,47
KAZ,Kazakhstan,51.17,71.42,1964,0
KEN,Kenya,-1.28,36.82,1964,1
KGZ,Kyrgyzstan,42.87,74.6,1964,0
KOR,South Korea,37.55,126.98,1964,3
KWT,Kuwait,29.37,47.97,1964,0
LBN,Lebanon,33.87,35.5,1964,0
LKA,Sri Lanka,6.92,79.83,1964,0
LTU,Lithuania,54.68,25.32,1964,0
LVA,Latvia,56.95,24.1,1964,0
MAR,Morocco,34.02,-6.82,1964,1
MDA,Moldova,47.0,28.85,1964,0
MEX,Mexico,19.43,-99.13,1964,2
MKD,North Macedonia,41.6,21.74,1964,0
MNE,Montenegro,42.43,19.27,1964,0
MNG,Mongolia,47.92,106.92,1964,0
MOZ,Mozambique,-25.95,32.58,1964,0
MUS,Mauritius,-20.15,57.48,1964,0
MYS,Malaysia,3.17,101.7,1964,0
NAM,Namibia,-22.57,17.08,1964,0
NER,Niger,13.52,2.12,1964,0
NGA,Nigeria,9.08,7.53,1964,1
NLD,Netherlands,52.35,4.92,1964,15
NOR,Norway,59.92,10.75,1964,2
NZL,New Zealand,-41.3,174.78,1964,9
PAK,Pakistan,33.68,73.05,1964,3
PAN,Panama,8.97,-79.53,1964,0
PER,Peru,-12.05,-77.05,1964,0
PHL,Philippines,14.6,120.97,1964,1
POL,Poland,52.25,21.0,1964,45
PRI,Puerto Rico,18.47,-66.12,1964,0
PRK,North Korea,39.02,125.75,1964,0
PRT,Portugal,38.72,-9.13,1964,2
PRY,Paraguay,-25.27,-57.67,1964,0
QAT,Qatar,25.28,51.53,1964,0
ROU,Romania,44.43,26.1,1964,23
RUS,Russia,55.75,37.6,1964,208
SAU,Saudi Arabia,24.65,46.7,1964,0
SDN,Sudan,15.6,32.53,1964,0
SEN,Senegal,14.73,-17.63,1964,0
SGP,Singapore,1.28,103.85,1964,1
SMR,San Marino,43.93,12.42,1964,0
SRB,Serbia,44.83,20.5,1964,0
SUR,Suriname,5.83,-55.17,1964,0
SVK,Slovakia,48.15,17.12,1964,0
SVN,Slovenia,46.05,14.52,1964,0
SWE,Sweden,59.33,18.05,1964,17
SYR,Syria,33.5,36.3,1964,0
TGO,Togo,6.12,1.22,1964,0
THA,Thailand,13.75,100.52,1964,0
TJK,Tajikistan,38.55,68.77,1964,0
TKM,Turkmenistan,37.95,58.38,1964,0
TON,Tonga,-21.13,-175.2,1964,0
TTO,Trinidad and Tobago,10.65,-61.52,1964,3
TUN,Tunisia,36.8,10.18,1964,2
TUR,Turkey,39.93,32.87,1964,15
TZA,Tanzania,-6.8,39.28,1964,0
UGA,Uganda,0.32,32.55,1964,0
UKR,Ukraine,50.43,30.52,1964,0
URY,Uruguay,-34.85,-56.17,1964,1
USA,United States,38.88,-90.0,1964,166
UZB,Uzbekistan,41.32,69.25,1964,0
VEN,Venezuela,10.48,-66.87,1964,1
VIR,United States Virgin Islands,18.35,-64.93,1964,0
VNM,Vietnam,21.03,105.85,1964,0
WSM,Samoa,-13.82,-171.77,1964,0
XKX,Kosovo,42.67,21.17,1964,0
YGL,Yugoslavia,44.83,20.5,1964,7
ZAF,South Africa,-25.7,28.22,1964,3
ZMB,Zambia,-15.42,28.28,1964,0
ZWE,Zimbabwe,-17.82,31.03,1964,0
AFG,Afghanistan,34.52,69.18,1968,0
ARE,United Arab Emirates,24.47,54.37,1968,0
ARG,Argentina,-34.58,-58.67,1968,5
ARM,Armenia,40.17,44.5,1968,0
AUS,Australia,-35.27,149.13,1968,57
AUT,Austria,48.2,16.37,1968,8
AZE,Azerbaijan,40.38,49.87,1968,0
BDI,Burundi,-3.37,29.35,1968,0
BEL,Belgium,50.83,4.33,1968,10
BFA,Burkina Faso,12.37,-1.52,1968,0
BGR,Bulgaria,42.68,23.32,1968,26
BHR,Bahrain,26.23,50.57,1968,0
BHS,Bahamas,25.08,-77.35,1968,2
BLR,Belarus,53.9,27.57,1968,0
BMU,Bermuda,32.28,-64.78,1968,0
BRA,Brazil,-15.78,-47.92,1968,7
BRB,Barbados,13.1,-59.62,1968,0
BWA,Botswana,-24.63,25.9,1968,0
CAN,Canada,45.42,-75.7,1968,11
CHE,Switzerland,46.92,7.47,1968,16
CHL,Chile,-33.45,-70.67,1968,0
CHN,China,39.92,116.38,1968,2
CIV,Côte d'Ivoire,6.82,-5.27,1968,0
CMR,Cameroon,3.87,11.52,1968,1
COL,Colombia,4.6,-74.08,1968,0
CRI,Costa Rica,9.93,-84.08,1968,0
CUB,Cuba,23.12,-82.35,1968,5
CYP,Cyprus,35.17,33.37,1968,0
CZE,Czech Republic,49.81,15.47,1968,37
DEU,Germany,52.52,13.4,1968,152
DJI,Djibouti,11.58,43.15,1968,0
DNK,Denmark,55.67,12.58,1968,23
DOM,Dominican Republic,18.47,-69.9,1968,0
DZA,Algeria,36.75,3.05,1968,0
ECU,Ecuador,-0.22,-78.5,1968,0
EGY,Egypt,30.05,31.25,1968,2
ERI,Eritrea,15.33,38.93,1968,0
ESP,Spain,40.4,-3.68,1968,1
EST,Estonia,59.43,24.72,1968,0
ETH,Ethiopia,9.03,38.7,1968,4
FIN,Finland,60.17,24.93,1968,15
FJI,Fiji,-18.13,178.42,1968,0
FRA,France,48.87,2.33,1968,37
GAB,Gabon,0.38,9.45,1968,0
GBR,Great Britain,54.08,-1.65,1968,53
GEO,Georgia,41.68,44.83,1968,0
GHA,Ghana,5.55,-0.22,1968,2
GRC,Greece,37.98,23.73,1968,2
GRD,Grenada,12.05,-61.75,1968,0
GTM,Guatemala,14.62,-90.52,1968,0
GUY,Guyana,6.8,-58.15,1968,0
HKG,Hong Kong,22.4,114.11,1968,0
HRV,Croatia,45.8,16.0,1968,0
HUN,Hungary,47.5,19.08,1968,81
IDN,Indonesia,-6.17,106.82,1968,0
IND,India,28.6,77.2,1968,3
IRL,Ireland,53.32,-6.23,1968,1
IRN,Iran,35.7,51.42,1968,11
IRQ,Iraq,33.33,44.4,1968,1
ISL,Iceland,64.15,-21.95,1968,0
ISR,Israel,31.77,35.23,1968,0
ITA,Italy,41.9,12.48,1968,83
JAM,Jamaica,18.0,-76.8,1968,3
JOR,Jordan,31.95,35.93,1968,0
JPN,Japan,35.68,139.75,1968,72
KAZ,Kazakhstan,51.17,71.42,1968,0
KEN,Kenya,-1.28,36.82,1968,10
KGZ,Kyrgyzstan,42.87,74.6,1968,0
KOR,South Korea,37.55,126.98,1968,5
KWT,Kuwait,29.37,47.97,1968,0
LBN,Lebanon,33.87,35.5,1968,0
LKA,Sri Lanka,6.92,79.83,1968,0
LTU,Lithuania,54.68,25.32,1968,0
LVA,Latvia,56.95,24.1,1968,0
MAR,Morocco,34.02,-6.82,1968,1
MDA,Moldova,47.0,28.85,1968,0
MEX,Mexico,19.43,-99.13,1968,11
MKD,North Macedonia,41.6,21.74,1968,0
MNE,Montenegro,42.43,19.27,1968,0
MNG,Mongolia,47.92,106.92,1968,4
MOZ,Mozambique,-25.95,32.58,1968,0
MUS,Mauritius,-20.15,57.48,1968,0
MYS,Malaysia,3.17,101.7,1968,0
NAM,Namibia,-22.57,17.08,1968,0
NER,Niger,13.52,2.12,1968,0
NGA,Nigeria,9.08,7.53,1968,1
NLD,Netherlands,52.35,4.92,1968,24
NOR,Norway,59.92,10.75,1968,5
NZL,New Zealand,-41.3,174.78,1968,12
PAK,Pakistan,33.68,73.05,1968,4
PAN,Panama,8.97,-79.53,1968,0
PER,Peru,-12.05,-77.05,1968,0
PHL,Philippines,14.6,120.97,1968,1
POL,Poland,52.25,21.0,1968,63
PRI,Puerto Rico,18.47,-66.12,1968,0
PRK,North Korea,39.02,125.75,1968,0
PRT,Portugal,38.72,-9.13,1968,2
PRY,Paraguay,-25.27,-57.67,1968,0
QAT,Qatar,25.28,51.53,1968,0
ROU,Romania,44.43,26.1,1968,39
RUS,Russia,55.75,37.6,1968,303
SAU,Saudi Arabia,24.65,46.7,1968,0
SDN,Sudan,15.6,32.53,1968,0
SEN,Senegal,14.73,-17.63,1968,0
SGP,Singapore,1.28,103.85,1968,1
SMR,San Marino,43.93,12.42,1968,0
SRB,Serbia,44.83,20.5,1968,0
SUR,Suriname,5.83,-55.17,1968,0
SVK,Slovakia,48.15,17.12,1968,0
SVN,Slovenia,46.05,14.52,1968,0
SWE,Sweden,59.33,18.05,1968,21
SYR,Syria,33.5,36.3,1968,0
TGO,Togo,6.12,1.22,1968,0
THA,Thailand,13.75,100.52,1968,0
TJK,Tajikistan,38.55,68.77,1968,0
TKM,Turkmenistan,37.95,58.38,1968,0
TON,Tonga,-21.13,-175.2,1968,0
TTO,Trinidad and Tobago,10.65,-61.52,1968,3
TUN,Tunisia,36.8,10.18,1968,4
TUR,Turkey,39.93,32.87,1968,17
TZA,Tanzania,-6.8,39.28,1968,0
UGA,Uganda,0.32,32.55,1968,2
UKR,Ukraine,50.43,30.52,1968,0
URY,Uruguay,-34.85,-56.17,1968,1
USA,United States,38.88,-90.0,1968,276
UZB,Uzbekistan,41.32,69.25,1968,0
VEN,Venezuela,10.48,-66.87,1968,2
VIR,United States Virgin Islands,18.35,-64.93,1968,0
VNM,Vietnam,21.03,105.85,1968,0
WSM,Samoa,-13.82,-171.77,1968,0
XKX,Kosovo,42.67,21.17,1968,0
YGL,Yugoslavia,44.83,20.5,1968,15
ZAF,South Africa,-25.7,28.22,1968,3
ZMB,Zambia,-15.42,28.28,1968,0
ZWE,Zimbabwe,-17.82,31.03,1968,0
AFG,Afghanistan,34.52,69.18,1972,0
ARE,United Arab Emirates,24.47,54.37,1972,0
ARG,Argentina,-34.58,-58.67,1972,6
ARM,Armenia,40.17,44.5,1972,0
AUS,Australia,-35.27,149.13,1972,75
AUT,Austria,48.2,16.37,1972,11
AZE,Azerbaijan,40.38,49.87,1972,0
BDI,Burundi,-3.37,29.35,1972,0
BEL,Belgium,50.83,4.33,1972,12
BFA,Burkina Faso,12.37,-1.52,1972,0
BGR,Bulgaria,42.68,23.32,1972,48
BHR,Bahrain,26.23,50.57,1972,0
BHS,Bahamas,25.08,-77.35,1972,2
BLR,Belarus,53.9,27.57,1972,0
BMU,Bermuda,32.28,-64.78,1972,0
BRA,Brazil,-15.78,-47.92,1972,9
BRB,Barbados,13.1,-59.62,1972,0
BWA,Botswana,-24.63,25.9,1972,0
CAN,Canada,45.42,-75.7,1972,16
CHE,Switzerland,46.92,7.47,1972,20
CHL,Chile,-33.45,-70.67,1972,0
CHN,China,39.92,116.38,1972,2
CIV,Côte d'Ivoire,6.82,-5.27,1972,0
CMR,Cameroon,3.87,11.52,1972,1
COL,Colombia,4.6,-74.08,1972,3
CRI,Costa Rica,9.93,-84.08,1972,0
CUB,Cuba,23.12,-82.35,1972,13
CYP,Cyprus,35.17,33.37,1972,0
CZE,Czech Republic,49.81,15.47,1972,45
DEU,Germany,52.52,13.4,1972,266
DJI,Djibouti,11.58,43.15,1972,0
DNK,Denmark,55.67,12.58,1972,24
DOM,Dominican Republic,18.47,-69.9,1972,0
DZA,Algeria,36.75,3.05,1972,0
ECU,Ecuador,-0.22,-78.5,1972,0
EGY,Egypt,30.05,31.25,1972,2
ERI,Eritrea,15.33,38.93,1972,0
ESP,Spain,40.4,-3.68,1972,2
EST,Estonia,59.43,24.72,1972,0
ETH,Ethiopia,9.03,38.7,1972,6
FIN,Finland,60.17,24.93,1972,23
FJI,Fiji,-18.13,178.42,1972,0
FRA,France,48.87,2.33,1972,52
GAB,Gabon,0.38,9.45,1972,0
GBR,Great Britain,54.08,-1.65,1972,73
GEO,Georgia,41.68,44.83,1972,0
GHA,Ghana,5.55,-0.22,1972,3
GRC,Greece,37.98,23.73,1972,4
GRD,Grenada,12.05,-61.75,1972,0
GTM,Guatemala,14.62,-90.52,1972,0
GUY,Guyana,6.8,-58.15,1972,0
HKG,Hong Kong,22.4,114.11,1972,0
HRV,Croatia,45.8,16.0,1972,0
HUN,Hungary,47.5,19.08,1972,117
IDN,Indonesia,-6.17,106.82,1972,0
IND,India,28.6,77.2,1972,4
IRL,Ireland,53.32,-6.23,1972,1
IRN,Iran,35.7,51.42,1972,14
IRQ,Iraq,33.33,44.4,1972,1
ISL,Iceland,64.15,-21.95,1972,0
ISR,Israel,31.77,35.23,1972,0
ITA,Italy,41.9,12.48,1972,101
JAM,Jamaica,18.0,-76.8,1972,4
JOR,Jordan,31.95,35.93,1972,0
JPN,Japan,35.68,139.75,1972,101
KAZ,Kazakhstan,51.17,71.42,1972,0
KEN,Kenya,-1.28,36.82,1972,19
KGZ,Kyrgyzstan,42.87,74.6,1972,0
KOR,South Korea,37.55,126.98,1972,6
KWT,Kuwait,29.37,47.97,1972,0
LBN,Lebanon,33.87,35.5,1972,1
LKA,Sri Lanka,6.92,79.83,1972,0
LTU,Lithuania,54.68,25.32,1972,0
LVA,Latvia,56.95,24.1,1972,0
MAR,Morocco,34.02,-6.82,1972,1
MDA,Moldova,47.0,28.85,1972,0
MEX,Mexico,19.43,-99.13,1972,12
MKD,North Macedonia,41.6,21.74,1972,0
MNE,Montenegro,42.43,19.27,1972,0
MNG,Mongolia,47.92,106.92,1972,5
MOZ,Mozambique,-25.95,32.58,1972,0
MUS,Mauritius,-20.15,57.48,1972,0
MYS,Malaysia,3.17,101.7,1972,0
NAM,Namibia,-22.57,17.08,1972,0
NER,Niger,13.52,2.12,1972,1
NGA,Nigeria,9.08,7.53,1972,2
NLD,Netherlands,52.35,4.92,1972,30
NOR,Norway,59.92,10.75,1972,10
NZL,New Zealand,-41.3,174.78,1972,15
PAK,Pakistan,33.68,73.05,1972,5
PAN,Panama,8.97,-79.53,1972,0
PER,Peru,-12.05,-77.05,1972,0
PHL,Philippines,14.6,120.97,1972,1
POL,Poland,52.25,21.0,1972,86
PRI,Puerto Rico,18.47,-66.12,1972,0
PRK,North Korea,39.02,125.75,1972,5
PRT,Portugal,38.72,-9.13,1972,2
PRY,Paraguay,-25.27,-57.67,1972,0
QAT,Qatar,25.28,51.53,1972,0
ROU,Romania,44.43,26.1,1972,57
RUS,Russia,55.75,37.6,1972,408
SAU,Saudi Arabia,24.65,46.7,1972,0
SDN,Sudan,15.6,32.53,1972,0
SEN,Senegal,14.73,-17.63,1972,0
SGP,Singapore,1.28,103.85,1972,1
SMR,San Marino,43.93,12.42,1972,0
SRB,Serbia,44.83,20.5,1972,0
SUR,Suriname,5.83,-55.17,1972,0
SVK,Slovakia,48.15,17.12,1972,0
SVN,Slovenia,46.05,14.52,1972,0
SWE,Sweden,59.33,18.05,1972,38
SYR,Syria,33.5,36.3,1972,0
TGO,Togo,6.12,1.22,1972,0
THA,Thailand,13.75,100.52,1972,0
TJK,Tajikistan,38.55,68.77,1972,0
TKM,Turkmenistan,37.95,58.38,1972,0
TON,Tonga,-21.13,-175.2,1972,0
TTO,Trinidad and Tobago,10.65,-61.52,1972,3
TUN,Tunisia,36.8,10.18,1972,5
TUR,Turkey,39.93,32.87,1972,18
TZA,Tanzania,-6.8,39.28,1972,0
UGA,Uganda,0.32,32.55,1972,4
UKR,Ukraine,50.43,30.52,1972,0
URY,Uruguay,-34.85,-56.17,1972,1
USA,United States,38.88,-90.0,1972,371
UZB,Uzbekistan,41.32,69.25,1972,0
VEN,Venezuela,10.48,-66.87,1972,2
VIR,United States Virgin Islands,18.35,-64.93,1972,0
VNM,Vietnam,21.03,105.85,1972,0
WSM,Samoa,-13.82,-171.77,1972,0
XKX,Kosovo,42.67,21.17,1972,0
YGL,Yugoslavia,44.83,20.5,1972,20
ZAF,South Africa,-25.7,28.22,1972,3
ZMB,Zambia,-15.42,28.28,1972,0
ZWE,Zimbabwe,-17.82,31.03,1972,0
AFG,Afghanistan,34.52,69.18,1976,0
ARE,United Arab Emirates,24.47,54.37,1976,0
ARG,Argentina,-34.58,-58.67,1976,6
ARM,Armenia,40.17,44.5,1976,0
AUS,Australia,-35.27,149.13,1976,81
AUT,Austria,48.2,16.37,1976,12
AZE,Azerbaijan,40.38,49.87,1976,0
BDI,Burundi,-3.37,29.35,1976,0
BEL,Belgium,50.83,4.33,1976,18
BFA,Burkina Faso,12.37,-1.52,1976,0
BGR,Bulgaria,42.68,23.32,1976,72
BHR,Bahrain,26.23,50.57,1976,0
BHS,Bahamas,25.08,-77.35,1976,2
BLR,Belarus,53.9,27.57,1976,0
BMU,Bermuda,32.28,-64.78,1976,1
BRA,Brazil,-15.78,-47.92,1976,12
BRB,Barbados,13.1,-59.62,1976,0
BWA,Botswana,-24.63,25.9,1976,0
CAN,Canada,45.42,-75.7,1976,27
CHE,Switzerland,46.92,7.47,1976,24
CHL,Chile,-33.45,-70.67,1976,0
CHN,China,39.92,116.38,1976,2
CIV,Côte d'Ivoire,6.82,-5.27,1976,0
CMR,Cameroon,3.87,11.52,1976,1
COL,Colombia,4.6,-74.08,1976,3
CRI,Costa Rica,9.93,-84.08,1976,0
CUB,Cuba,23.12,-82.35,1976,26
CYP,Cyprus,35.17,33.37,1976,0
CZE,Czech Republic,49.81,15.47,1976,53
DEU,Germany,52.52,13.4,1976,407
DJI,Djibouti,11.58,43.15,1976,0
DNK,Denmark,55.67,12.58,1976,27
DOM,Dominican Republic,18.47,-69.9,1976,0
DZA,Algeria,36.75,3.05,1976,0
ECU,Ecuador,-0.22,-78.5,1976,0
EGY,Egypt,30.05,31.25,1976,2
ERI,Eritrea,15.33,38.93,1976,0
ESP,Spain,40.4,-3.68,1976,5
EST,Estonia,59.43,24.72,1976,0
ETH,Ethiopia,9.03,38.7,1976,6
FIN,Finland,60.17,24.93,1976,29
FJI,Fiji,-18.13,178.42,1976,0
FRA,France,48.87,2.33,1976,61
GAB,Gabon,0.38,9.45,1976,0
GBR,Great Britain,54.08,-1.65,1976,89
GEO,Georgia,41.68,44.83,1976,0
GHA,Ghana,5.55,-0.22,1976,3
GRC,Greece,37.98,23.73,1976,4
GRD,Grenada,12.05,-61.75,1976,0
GTM,Guatemala,14.62,-90.52,1976,0
GUY,Guyana,6.8,-58.15,1976,0
HKG,Hong Kong,22.4,114.11,1976,0
HRV,Croatia,45.8,16.0,1976,0
HUN,Hungary,47.5,19.08,1976,143
IDN,Indonesia,-6.17,106.82,1976,0
IND,India,28.6,77.2,1976,4
IRL,Ireland,53.32,-6.23,1976,1
IRN,Iran,35.7,51.42,1976,16
IRQ,Iraq,33.33,44.4,1976,1
ISL,Iceland,64.15,-21.95,1976,0
ISR,Israel,31.77,35.23,1976,0
ITA,Italy,41.9,12.48,1976,114
JAM,Jamaica,18.0,-76.8,1976,6
JOR,Jordan,31.95,35.93,1976,0
JPN,Japan,35.68,139.75,1976,126
KAZ,Kazakhstan,51.17,71.42,1976,0
KEN,Kenya,-1.28,36.82,1976,19
KGZ,Kyrgyzstan,42.87,74.6,1976,0
KOR,South Korea,37.55,126.98,1976,12
KWT,Kuwait,29.37,47.97,1976,0
LBN,Lebanon,33.87,35.5,1976,1
LKA,Sri Lanka,6.92,79.83,1976,0
LTU,Lithuania,54.68,25.32,1976,0
LVA,Latvia,56.95,24.1,1976,0
MAR,Morocco,34.02,-6.82,1976,1
MDA,Moldova,47.0,28.85,1976,0
MEX,Mexico,19.43,-99.13,1976,14
MKD,North Macedonia,41.6,21.74,1976,0
MNE,Montenegro,42.43,19.27,1976,0
MNG,Mongolia,47.92,106.92,1976,6
MOZ,Mozambique,-25.95,32.58,1976,0
MUS,Mauritius,-20.15,57.48,1976,0
MYS,Malaysia,3.17,101.7,1976,0
NAM,Namibia,-22.57,17.08,1976,0
NER,Niger,13.52,2.12,1976,1
NGA,Nigeria,9.08,7.53,1976,2
NLD,Netherlands,52.35,4.92,1976,35
NOR,Norway,59.92,10.75,1976,13
NZL,New Zealand,-41.3,174.78,1976,19
PAK,Pakistan,33.68,73.05,1976,6
PAN,Panama,8.97,-79.53,1976,0
PER,Peru,-12.05,-77.05,1976,0
PHL,Philippines,14.6,120.97,1976,1
POL,Poland,52.25,21.0,1976,113
PRI,Puerto Rico,18.47,-66.12,1976,1
PRK,North Korea,39.02,125.75,1976,7
PRT,Portugal,38.72,-9.13,1976,4
PRY,Paraguay,-25.27,-57.67,1976,0
QAT,Qatar,25.28,51.53,1976,0
ROU,Romania,44.43,26.1,1976,86
RUS,Russia,55.75,37.6,1976,540
SAU,Saudi Arabia,24.65,46.7,1976,0
SDN,Sudan,15.6,32.53,1976,0
SEN,Senegal,14.73,-17.63,1976,0
SGP,Singapore,1.28,103.85,1976,1
SMR,San Marino,43.93,12.42,1976,0
SRB,Serbia,44.83,20.5,1976,0
SUR,Suriname,5.83,-55.17,1976,0
SVK,Slovakia,48.15,17.12,1976,0
SVN,Slovenia,46.05,14.52,1976,0
SWE,Sweden,59.33,18.05,1976,44
SYR,Syria,33.5,36.3,1976,0
TGO,Togo,6.12,1.22,1976,0
THA,Thailand,13.75,100.52,1976,1
TJK,Tajikistan,38.55,68.77,1976,0
TKM,Turkmenistan,37.95,58.38,1976,0
TON,Tonga,-21.13,-175.2,1976,0
TTO,Trinidad and Tobago,10.65,-61.52,1976,4
TUN,Tunisia,36.8,10.18,1976,5
TUR,Turkey,39.93,32.87,1976,18
TZA,Tanzania,-6.8,39.28,1976,0
UGA,Uganda,0.32,32.55,1976,4
UKR,Ukraine,50.43,30.52,1976,0
URY,Uruguay,-34.85,-56.17,1976,1
USA,United States,38.88,-90.0,1976,468
UZB,Uzbekistan,41.32,69.25,1976,0
VEN,Venezuela,10.48,-66.87,1976,3
VIR,United States Virgin Islands,18.35,-64.93,1976,0
VNM,Vietnam,21.03,105.85,1976,0
WSM,Samoa,-13.82,-171.77,1976,0
XKX,Kosovo,42.67,21.17,1976,0
YGL,Yugoslavia,44.83,20.5,1976,28
ZAF,South Africa,-25.7,28.22,1976,3
ZMB,Zambia,-15.42,28.28,1976,0
ZWE,Zimbabwe,-17.82,31.03,1976,0
AFG,Afghanistan,34.52,69.18,1980,0
ARE,United Arab Emirates,24.47,54.37,1980,0
ARG,Argentina,-34.58,-58.67,1980,6
ARM,Armenia,40.17,44.5,1980,0
AUS,Australia,-35.27,149.13,1980,90
AUT,Austria,48.2,16.37,1980,17
AZE,Azerbaijan,40.38,49.87,1980,0
BDI,Burundi,-3.37,29.35,1980,0
BEL,Belgium,50.83,4.33,1980,19
BFA,Burkina Faso,12.37,-1.52,1980,0
BGR,Bulgaria,42.68,23.32,1980,115
BHR,Bahrain,26.23,50.57,1980,0
BHS,Bahamas,25.08,-77.35,1980,2
BLR,Belarus,53.9,27.57,1980,0
BMU,Bermuda,32.28,-64.78,1980,1
BRA,Brazil,-15.78,-47.92,1980,18
BRB,Barbados,13.1,-59.62,1980,0
BWA,Botswana,-24.63,25.9,1980,0
CAN,Canada,45.42,-75.7,1980,27
CHE,Switzerland,46.92,7.47,1980,26
CHL,Chile,-33.45,-70.67,1980,0
CHN,China,39.92,116.38,1980,2
CIV,Côte d'Ivoire,6.82,-5.27,1980,0
CMR,Cameroon,3.87,11.52,1980,1
COL,Colombia,4.6,-74.08,1980,3
CRI,Costa Rica,9.93,-84.08,1980,0
CUB,Cuba,23.12,-82.35,1980,46
CYP,Cyprus,35.17,33.37,1980,0
CZE,Czech Republic,49.81,15.47,1980,68
DEU,Germany,52.52,13.4,1980,541
DJI,Djibouti,11.58,43.15,1980,0
DNK,Denmark,55.67,12.58,1980,33
DOM,Dominican Republic,18.47,-69.9,1980,0
DZA,Algeria,36.75,3.05,1980,0
ECU,Ecuador,-0.22,-78.5,1980,0
EGY,Egypt,30.05,31.25,1980,2
ERI,Eritrea,15.33,38.93,1980,0
ESP,Spain,40.4,-3.68,1980,14
EST,Estonia,59.43,24.72,1980,0
ETH,Ethiopia,9.03,38.7,1980,10
FIN,Finland,60.17,24.93,1980,38
FJI,Fiji,-18.13,178.42,1980,0
FRA,France,48.87,2.33,1980,75
GAB,Gabon,0.38,9.45,1980,0
GBR,Great Britain,54.08,-1.65,1980,111
GEO,Georgia,41.68,44.83,1980,0
GHA,Ghana,5.55,-0.22,1980,3
GRC,Greece,37.98,23.73,1980,7
GRD,Grenada,12.05,-61.75,1980,0
GTM,Guatemala,14.62,-90.52,1980,0
GUY,Guyana,6.8,-58.15,1980,1
HKG,Hong Kong,22.4,114.11,1980,0
HRV,Croatia,45.8,16.0,1980,0
HUN,Hungary,47.5,19.08,1980,179
IDN,Indonesia,-6.17,106.82,1980,0
IND,India,28.6,77.2,1980,5
IRL,Ireland,53.32,-6.23,1980,4
IRN,Iran,35.7,51.42,1980,16
IRQ,Iraq,33.33,44.4,1980,1
ISL,Iceland,64.15,-21.95,1980,0
ISR,Israel,31.77,35.23,1980,0
ITA,Italy,41.9,12.48,1980,130
JAM,Jamaica,18.0,-76.8,1980,9
JOR,Jordan,31.95,35.93,1980,0
JPN,Japan,35.68,139.75,1980,126
KAZ,Kazakhstan,51.17,71.42,1980,0
KEN,Kenya,-1.28,36.82,1980,19
KGZ,Kyrgyzstan,42.87,74.6,1980,0
KOR,South Korea,37.55,126.98,1980,12
KWT,Kuwait,29.37,47.97,1980,0
LBN,Lebanon,33.87,35.5,1980,2
LKA,Sri Lanka,6.92,79.83,1980,0
LTU,Lithuania,54.68,25.32,1980,0
LVA,Latvia,56.95,24.1,1980,0
MAR,Morocco,34.02,-6.82,1980,1
MDA,Moldova,47.0,28.85,1980,0
MEX,Mexico,19.43,-99.13,1980,18
MKD,North Macedonia,41.6,21.74,1980,0
MNE,Montenegro,42.43,19.27,1980,0
MNG,Mongolia,47.92,106.92,1980,10
MOZ,Mozambique,-25.95,32.58,1980,0
MUS,Mauritius,-20.15,57.48,1980,0
MYS,Malaysia,3.17,101.7,1980,0
NAM,Namibia,-22.57,17.08,1980,0
NER,Niger,13.52,2.12,1980,1
NGA,Nigeria,9.08,7.53,1980,2
NLD,Netherlands,52.35,4.92,1980,38
NOR,Norway,59.92,10.75,1980,13
NZL,New Zealand,-41.3,174.78,1980,19
PAK,Pakistan,33.68,73.05,1980,6
PAN,Panama,8.97,-79.53,1980,0
PER,Peru,-12.05,-77.05,1980,0
PHL,Philippines,14.6,120.97,1980,1
POL,Poland,52.25,21.0,1980,146
PRI,Puerto Rico,18.47,-66.12,1980,1
PRK,North Korea,39.02,125.75,1980,12
PRT,Portugal,38.72,-9.13,1980,4
PRY,Paraguay,-25.27,-57.67,1980,0
QAT,Qatar,25.28,51.53,1980,0
ROU,Romania,44.43,26.1,1980,114
RUS,Russia,55.75,37.6,1980,742
SAU,Saudi Arabia,24.65,46.7,1980,0
SDN,Sudan,15.6,32.53,1980,0
SEN,Senegal,14.73,-17.63,1980,0
SGP,Singapore,1.28,103.85,1980,1
SMR,San Marino,43.93,12.42,1980,0
SRB,Serbia,44.83,20.5,1980,0
SUR,Suriname,5.83,-55.17,1980,0
SVK,Slovakia,48.15,17.12,1980,0
SVN,Slovenia,46.05,14.52,1980,0
SWE,Sweden,59.33,18.05,1980,57
SYR,Syria,33.5,36.3,1980,0
TGO,Togo,6.12,1.22,1980,0
THA,Thailand,13.75,100.52,1980,1
TJK,Tajikistan,38.55,68.77,1980,0
TKM,Turkmenistan,37.95,58.38,1980,0
TON,Tonga,-21.13,-175.2,1980,0
TTO,Trinidad and Tobago,10.65,-61.52,1980,4
TUN,Tunisia,36.8,10.18,1980,5
TUR,Turkey,39.93,32.87,1980,18
TZA,Tanzania,-6.8,39.28,1980,2
UGA,Uganda,0.32,32.55,1980,5
UKR,Ukraine,50.43,30.52,1980,0
URY,Uruguay,-34.85,-56.17,1980,1
USA,United States,38.88,-90.0,1980,468
UZB,Uzbekistan,41.32,69.25,1980,0
VEN,Venezuela,10.48,-66.87,1980,4
VIR,United States Virgin Islands,18.35,-64.93,1980,0
VNM,Vietnam,21.03,105.85,1980,0
WSM,Samoa,-13.82,-171.77,1980,0
XKX,Kosovo,42.67,21.17,1980,0
YGL,Yugoslavia,44.83,20.5,1980,38
ZAF,South Africa,-25.7,28.22,1980,3
ZMB,Zambia,-15.42,28.28,1980,0
ZWE,Zimbabwe,-17.82,31.03,1980,1
AFG,Afghanistan,34.52,69.18,1984,0
ARE,United Arab Emirates,24.47,54.37,1984,0
ARG,Argentina,-34.58,-58.67,1984,6
ARM,Armenia,40.17,44.5,1984,0
AUS,Australia,-35.27,149.13,1984,116
AUT,Austria,48.2,16.37,1984,20
AZE,Azerbaijan,40.38,49.87,1984,0
BDI,Burundi,-3.37,29.35,1984,0
BEL,Belgium,50.83,4.33,1984,24
BFA,Burkina Faso,12.37,-1.52,1984,0
BGR,Bulgaria,42.68,23.32,1984,115
BHR,Bahrain,26.23,50.57,1984,0
BHS,Bahamas,25.08,-77.35,1984,2
BLR,Belarus,53.9,27.57,1984,0
BMU,Bermuda,32.28,-64.78,1984,1
BRA,Brazil,-15.78,-47.92,1984,26
BRB,Barbados,13.1,-59.62,1984,0
BWA,Botswana,-24.63,25.9,1984,0
CAN,Canada,45.42,-75.7,1984,78
CHE,Switzerland,46.92,7.47,1984,34
CHL,Chile,-33.45,-70.67,1984,0
CHN,China,39.92,116.38,1984,35
CIV,Côte d'Ivoire,6.82,-5.27,1984,1
CMR,Cameroon,3.87,11.52,1984,2
COL,Colombia,4.6,-74.08,1984,4
CRI,Costa Rica,9.93,-84.08,1984,0
CUB,Cuba,23.12,-82.35,1984,46
CYP,Cyprus,35.17,33.37,1984,0
CZE,Czech Republic,49.81,15.47,1984,68
DEU,Germany,52.52,13.4,1984,603
DJI,Djibouti,11.58,43.15,1984,0
DNK,Denmark,55.67,12.58,1984,39
DOM,Dominican Republic,18.47,-69.9,1984,1
DZA,Algeria,36.75,3.05,1984,2
ECU,Ecuador,-0.22,-78.5,1984,0
EGY,Egypt,30.05,31.25,1984,3
ERI,Eritrea,15.33,38.93,1984,0
ESP,Spain,40.4,-3.68,1984,22
EST,Estonia,59.43,24.72,1984,0
ETH,Ethiopia,9.03,38.7,1984,10
FIN,Finland,60.17,24.93,1984,50
FJI,Fiji,-18.13,178.42,1984,0
FRA,France,48.87,2.33,1984,106
GAB,Gabon,0.38,9.45,1984,0
GBR,Great Britain,54.08,-1.65,1984,149
GEO,Georgia,41.68,44.83,1984,0
GHA,Ghana,5.55,-0.22,1984,3
GRC,Greece,37.98,23.73,1984,9
GRD,Grenada,12.05,-61.75,1984,0
GTM,Guatemala,14.62,-90.52,1984,0
GUY,Guyana,6.8,-58.15,1984,1
HKG,Hong Kong,22.4,114.11,1984,0
HRV,Croatia,45.8,16.0,1984,0
HUN,Hungary,47.5,19.08,1984,179
IDN,Indonesia,-6.17,106.82,1984,0
IND,India,28.6,77.2,1984,5
IRL,Ireland,53.32,-6.23,1984,5
IRN,Iran,35.7,51.42,1984,16
IRQ,Iraq,33.33,44.4,1984,1
ISL,Iceland,64.15,-21.95,1984,1
ISR,Israel,31.77,35.23,1984,0
ITA,Italy,41.9,12.48,1984,163
JAM,Jamaica,18.0,-76.8,1984,12
JOR,Jordan,31.95,35.93,1984,0
JPN,Japan,35.68,139.75,1984,159
KAZ,Kazakhstan,51.17,71.42,1984,0
KEN,Kenya,-1.28,36.82,1984,22
KGZ,Kyrgyzstan,42.87,74.6,1984,0
KOR,South Korea,37.55,126.98,1984,31
KWT,Kuwait,29.37,47.97,1984,0
LBN,Lebanon,33.87,35.5,1984,2
LKA,Sri Lanka,6.92,79.83,1984,0
LTU,Lithuania,54.68,25.32,1984,0
LVA,Latvia,56.95,24.1,1984,0
MAR,Morocco,34.02,-6.82,1984,3
MDA,Moldova,47.0,28.85,1984,0
MEX,Mexico,19.43,-99.13,1984,24
MKD,North Macedonia,41.6,21.74,1984,0
MNE,Montenegro,42.43,19.27,1984,0
MNG,Mongolia,47.92,106.92,1984,10
MOZ,Mozambique,-25.95,32.58,1984,0
MUS,Mauritius,-20.15,57.48,1984,0
MYS,Malaysia,3.17,101.7,1984,0
NAM,Namibia,-22.57,17.08,1984,0
NER,Niger,13.52,2.12,1984,1
NGA,Nigeria,9.08,7.53,1984,4
NLD,Netherlands,52.35,4.92,1984,52
NOR,Norway,59.92,10.75,1984,17
NZL,New Zealand,-41.3,174.78,1984,32
PAK,Pakistan,33.68,73.05,1984,7
PAN,Panama,8.97,-79.53,1984,0
PER,Peru,-12.05,-77.05,1984,1
PHL,Philippines,14.6,120.97,1984,1
POL,Poland,52.25,21.0,1984,146
PRI,Puerto Rico,18.47,-66.12,1984,3
PRK,North Korea,39.02,125.75,1984,12
PRT,Portugal,38.72,-9.13,1984,7
PRY,Paraguay,-25.27,-57.67,1984,0
QAT,Qatar,25.28,51.53,1984,0
ROU,Romania,44.43,26.1,1984,172
RUS,Russia,55.75,37.6,1984,742
SAU,Saudi Arabia,24.65,46.7,1984,0
SDN,Sudan,15.6,32.53,1984,0
SEN,Senegal,14.73,-17.63,1984,0
SGP,Singapore,1.28,103.85,1984,1
SMR,San Marino,43.93,12.42,1984,0
SRB,Serbia,44.83,20.5,1984,0
SUR,Suriname,5.83,-55.17,1984,0
SVK,Slovakia,48.15,17.12,1984,0
SVN,Slovenia,46.05,14.52,1984,0
SWE,Sweden,59.33,18.05,1984,78
SYR,Syria,33.5,36.3,1984,1
TGO,Togo,6.12,1.22,1984,0
THA,Thailand,13.75,100.52,1984,2
TJK,Tajikistan,38.55,68.77,1984,0
TKM,Turkmenistan,37.95,58.38,1984,0
TON,Tonga,-21.13,-175.2,1984,0
TTO,Trinidad and Tobago,10.65,-61.52,1984,4
TUN,Tunisia,36.8,10.18,1984,5
TUR,Turkey,39.93,32.87,1984,21
TZA,Tanzania,-6.8,39.28,1984,2
UGA,Uganda,0.32,32.55,1984,5
UKR,Ukraine,50.43,30.52,1984,0
URY,Uruguay,-34.85,-56.17,1984,1
USA,United States,38.88,-90.0,1984,648
UZB,Uzbekistan,41.32,69.25,1984,0
VEN,Venezuela,10.48,-66.87,1984,7
VIR,United States Virgin Islands,18.35,-64.93,1984,0
VNM,Vietnam,21.03,105.85,1984,0
WSM,Samoa,-13.82,-171.77,1984,0
XKX,Kosovo,42.67,21.17,1984,0
YGL,Yugoslavia,44.83,20.5,1984,59
ZAF,South Africa,-25.7,28.22,1984,3
ZMB,Zambia,-15.42,28.28,1984,1
ZWE,Zimbabwe,-17.82,31.03,1984,1
AFG,Afghanistan,34.52,69.18,1988,0
ARE,United Arab Emirates,24.47,54.37,1988,0
ARG,Argentina,-34.58,-58.67,1988,8
ARM,Armenia,40.17,44.5,1988,0
AUS,Australia,-35.27,149.13,1988,132
AUT,Austria,48.2,16.37,1988,21
AZE,Azerbaijan,40.38,49.87,1988,0
BDI,Burundi,-3.37,29.35,1988,0
BEL,Belgium,50.83,4.33,1988,26
BFA,Burkina Faso,12.37,-1.52,1988,0
BGR,Bulgaria,42.68,23.32,1988,153
BHR,Bahrain,26.23,50.57,1988,0
BHS,Bahamas,25.08,-77.35,1988,2
BLR,Belarus,53.9,27.57,1988,0
BMU,Bermuda,32.28,-64.78,1988,1
BRA,Brazil,-15.78,-47.92,1988,34
BRB,Barbados,13.1,-59.62,1988,0
BWA,Botswana,-24.63,25.9,1988,0
CAN,Canada,45.42,-75.7,1988,90
CHE,Switzerland,46.92,7.47,1988,39
CHL,Chile,-33.45,-70.67,1988,1
CHN,China,39.92,116.38,1988,65
CIV,Côte d'Ivoire,6.82,-5.27,1988,1
CMR,Cameroon,3.87,11.52,1988,2
COL,Colombia,4.6,-74.08,1988,5
CRI,Costa Rica,9.93,-84.08,1988,1
CUB,Cuba,23.12,-82.35,1988,46
CYP,Cyprus,35.17,33.37,1988,0
CZE,Czech Republic,49.81,15.47,1988,78
DEU,Germany,52.52,13.4,1988,749
DJI,Djibouti,11.58,43.15,1988,1
DNK,Denmark,55.67,12.58,1988,44
DOM,Dominican Republic,18.47,-69.9,1988,1
DZA,Algeria,36.75,3.05,1988,2
ECU,Ecuador,-0.22,-78.5,1988,0
EGY,Egypt,30.05,31.25,1988,3
ERI,Eritrea,15.33,38.93,1988,0
ESP,Spain,40.4,-3.68,1988,27
EST,Estonia,59.43,24.72,1988,0
ETH,Ethiopia,9.03,38.7,1988,10
FIN,Finland,60.17,24.93,1988,54
FJI,Fiji,-18.13,178.42,1988,0
FRA,France,48.87,2.33,1988,125
GAB,Gabon,0.38,9.45,1988,0
GBR,Great Britain,54.08,-1.65,1988,175
GEO,Georgia,41.68,44.83,1988,0
GHA,Ghana,5.55,-0.22,1988,3
GRC,Greece,37.98,23.73,1988,10
GRD,Grenada,12.05,-61.75,1988,0
GTM,Guatemala,14.62,-90.52,1988,0
GUY,Guyana,6.8,-58.15,1988,1
HKG,Hong Kong,22.4,114.11,1988,0
HRV,Croatia,45.8,16.0,1988,0
HUN,Hungary,47.5,19.08,1988,203
IDN,Indonesia,-6.17,106.82,1988,1
IND,India,28.6,77.2,1988,5
IRL,Ireland,53.32,-6.23,1988,5
IRN,Iran,35.7,51.42,1988,17
IRQ,Iraq,33.33,44.4,1988,1
ISL,Iceland,64.15,-21.95,1988,1
ISR,Israel,31.77,35.23,1988,0
ITA,Italy,41.9,12.48,1988,177
JAM,Jamaica,18.0,-76.8,1988,14
JOR,Jordan,31.95,35.93,1988,0
JPN,Japan,35.68,139.75,1988,174
KAZ,Kazakhstan,51.17,71.42,1988,0
KEN,Kenya,-1.28,36.82,1988,31
KGZ,Kyrgyzstan,42.87,74.6,1988,0
KOR,South Korea,37.55,126.98,1988,66
KWT,Kuwait,29.37,47.97,1988,0
LBN,Lebanon,33.87,35.5,1988,2
LKA,Sri Lanka,6.92,79.83,1988,0
LTU,Lithuania,54.68,25.32,1988,0
LVA,Latvia,56.95,24.1,1988,0
MAR,Morocco,34.02,-6.82,1988,6
MDA,Moldova,47.0,28.85,1988,0
MEX,Mexico,19.43,-99.13,1988,26
MKD,North Macedonia,41.6,21.74,1988,0
MNE,Montenegro,42.43,19.27,1988,0
MNG,Mongolia,47.92,106.92,1988,11
MOZ,Mozambique,-25.95,32.58,1988,0
MUS,Mauritius,-20.15,57.48,1988,0
MYS,Malaysia,3.17,101.7,1988,0
NAM,Namibia,-22.57,17.08,1988,0
NER,Niger,13.52,2.12,1988,1
NGA,Nigeria,9.08,7.53,1988,4
NLD,Netherlands,52.35,4.92,1988,64
NOR,Norway,59.92,10.75,1988,23
NZL,New Zealand,-41.3,174.78,1988,49
PAK,Pakistan,33.68,73.05,1988,8
PAN,Panama,8.97,-79.53,1988,0
PER,Peru,-12.05,-77.05,1988,2
PHL,Philippines,14.6,120.97,1988,2
POL,Poland,52.25,21.0,1988,164
PRI,Puerto Rico,18.47,-66.12,1988,3
PRK,North Korea,39.02,125.75,1988,12
PRT,Portugal,38.72,-9.13,1988,8
PRY,Paraguay,-25.27,-57.67,1988,0
QAT,Qatar,25.28,51.53,1988,0
ROU,Romania,44.43,26.1,1988,198
RUS,Russia,55.75,37.6,1988,880
SAU,Saudi Arabia,24.65,46.7,1988,0
SDN,Sudan,15.6,32.53,1988,0
SEN,Senegal,14.73,-17.63,1988,1
SGP,Singapore,1.28,103.85,1988,1
SMR,San Marino,43.93,12.42,1988,0
SRB,Serbia,44.83,20.5,1988,0
SUR,Suriname,5.83,-55.17,1988,1
SVK,Slovakia,48.15,17.12,1988,0
SVN,Slovenia,46.05,14.52,1988,0
SWE,Sweden,59.33,18.05,1988,91
SYR,Syria,33.5,36.3,1988,1
TGO,Togo,6.12,1.22,1988,0
THA,Thailand,13.75,100.52,1988,3
TJK,Tajikistan,38.55,68.77,1988,0
TKM,Turkmenistan,37.95,58.38,1988,0
TON,Tonga,-21.13,-175.2,1988,0
TTO,Trinidad and Tobago,10.65,-61.52,1988,4
TUN,Tunisia,36.8,10.18,1988,5
TUR,Turkey,39.93,32.87,1988,23
TZA,Tanzania,-6.8,39.28,1988,2
UGA,Uganda,0.32,32.55,1988,5
UKR,Ukraine,50.43,30.52,1988,0
URY,Uruguay,-34.85,-56.17,1988,1
USA,United States,38.88,-90.0,1988,749
UZB,Uzbekistan,41.32,69.25,1988,0
VEN,Venezuela,10.48,-66.87,1988,7
VIR,United States Virgin Islands,18.35,-64.93,1988,1
VNM,Vietnam,21.03,105.85,1988,0
WSM,Samoa,-13.82,-171.77,1988,0
XKX,Kosovo,42.67,21.17,1988,0
YGL,Yugoslavia,44.83,20.5,1988,74
ZAF,South Africa,-25.7,28.22,1988,3
ZMB,Zambia,-15.42,28.28,1988,1
ZWE,Zimbabwe,-17.82,31.03,1988,1
AFG,Afghanistan,34.52,69.18,1992,0
ARE,United Arab Emirates,24.47,54.37,1992,0
ARG,Argentina,-34.58,-58.67,1992,10
ARM,Armenia,40.17,44.5,1992,0
AUS,Australia,-35.27,149.13,1992,162
AUT,Austria,48.2,16.37,1992,24
AZE,Azerbaijan,40.38,49.87,1992,0
BDI,Burundi,-3.37,29.35,1992,0
BEL,Belgium,50.83,4.33,1992,29
BFA,Burkina Faso,12.37,-1.52,1992,0
BGR,Bulgaria,42.68,23.32,1992,170
BHR,Bahrain,26.23,50.57,1992,0
BHS,Bahamas,25.08,-77.35,1992,3
BLR,Belarus,53.9,27.57,1992,0
BMU,Bermuda,32.28,-64.78,1992,1
BRA,Brazil,-15.78,-47.92,1992,37
BRB,Barbados,13.1,-59.62,1992,0
BWA,Botswana,-24.63,25.9,1992,0
CAN,Canada,45.42,-75.7,1992,111
CHE,Switzerland,46.92,7.47,1992,40
CHL,Chile,-33.45,-70.67,1992,1
CHN,China,39.92,116.38,1992,127
CIV,Côte d'Ivoire,6.82,-5.27,1992,1
CMR,Cameroon,3.87,11.52,1992,2
COL,Colombia,4.6,-74.08,1992,6
CRI,Costa Rica,9.93,-84.08,1992,1
CUB,Cuba,23.12,-82.35,1992,77
CYP,Cyprus,35.17,33.37,1992,0
CZE,Czech Republic,49.81,15.47,1992,86
DEU,Germany,52.52,13.4,1992,841
DJI,Djibouti,11.58,43.15,1992,1
DNK,Denmark,55.67,12.58,1992,52
DOM,Dominican Republic,18.47,-69.9,1992,1
DZA,Algeria,36.75,3.05,1992,4
ECU,Ecuador,-0.22,-78.5,1992,0
EGY,Egypt,30.05,31.25,1992,3
ERI,Eritrea,15.33,38.93,1992,0
ESP,Spain,40.4,-3.68,1992,53
EST,Estonia,59.43,24.72,1992,3
ETH,Ethiopia,9.03,38.7,1992,13
FIN,Finland,60.17,24.93,1992,59
FJI,Fiji,-18.13,178.42,1992,0
FRA,France,48.87,2.33,1992,157
GAB,Gabon,0.38,9.45,1992,0
GBR,Great Britain,54.08,-1.65,1992,196
GEO,Georgia,41.68,44.83,1992,0
GHA,Ghana,5.55,-0.22,1992,4
GRC,Greece,37.98,23.73,1992,12
GRD,Grenada,12.05,-61.75,1992,0
GTM,Guatemala,14.62,-90.52,1992,0
GUY,Guyana,6.8,-58.15,1992,1
HKG,Hong Kong,22.4,114.11,1992,0
HRV,Croatia,45.8,16.0,1992,4
HUN,Hungary,47.5,19.08,1992,234
IDN,Indonesia,-6.17,106.82,1992,7
IND,India,28.6,77.2,1992,5
IRL,Ireland,53.32,-6.23,1992,7
IRN,Iran,35.7,51.42,1992,20
IRQ,Iraq,33.33,44.4,1992,1
ISL,Iceland,64.15,-21.95,1992,1
ISR,Israel,31.77,35.23,1992,2
ITA,Italy,41.9,12.48,1992,197
JAM,Jamaica,18.0,-76.8,1992,18
JOR,Jordan,31.95,35.93,1992,0
JPN,Japan,35.68,139.75,1992,197
KAZ,Kazakhstan,51.17,71.42,1992,0
KEN,Kenya,-1.28,36.82,1992,39
KGZ,Kyrgyzstan,42.87,74.6,1992,0
KOR,South Korea,37.55,126.98,1992,101
KWT,Kuwait,29.37,47.97,1992,0
LBN,Lebanon,33.87,35.5,1992,2
LKA,Sri Lanka,6.92,79.83,1992,0
LTU,Lithuania,54.68,25.32,1992,2
LVA,Latvia,56.95,24.1,1992,3
MAR,Morocco,34.02,-6.82,1992,9
MDA,Moldova,47.0,28.85,1992,0
MEX,Mexico,19.43,-99.13,1992,27
MKD,North Macedonia,41.6,21.74,1992,0
MNE,Montenegro,42.43,19.27,1992,0
MNG,Mongolia,47.92,106.92,1992,13
MOZ,Mozambique,-25.95,32.58,1992,0
MUS,Mauritius,-20.15,57.48,1992,0
MYS,Malaysia,3.17,101.7,1992,2
NAM,Namibia,-22.57,17.08,1992,2
NER,Niger,13.52,2.12,1992,1
NGA,Nigeria,9.08,7.53,1992,8
NLD,Netherlands,52.35,4.92,1992,80
NOR,Norway,59.92,10.75,1992,30
NZL,New Zealand,-41.3,174.78,1992,61
PAK,Pakistan,33.68,73.05,1992,9
PAN,Panama,8.97,-79.53,1992,0
PER,Peru,-12.05,-77.05,1992,3
PHL,Philippines,14.6,120.97,1992,3
POL,Poland,52.25,21.0,1992,185
PRI,Puerto Rico,18.47,-66.12,1992,4
PRK,North Korea,39.02,125.75,1992,22
PRT,Portugal,38.72,-9.13,1992,8
PRY,Paraguay,-25.27,-57.67,1992,0
QAT,Qatar,25.28,51.53,1992,1
ROU,Romania,44.43,26.1,1992,217
RUS,Russia,55.75,37.6,1992,994
SAU,Saudi Arabia,24.65,46.7,1992,0
SDN,Sudan,15.6,32.53,1992,0
SEN,Senegal,14.73,-17.63,1992,1
SGP,Singapore,1.28,103.85,1992,1
SMR,San Marino,43.93,12.42,1992,0
SRB,Serbia,44.83,20.5,1992,0
SUR,Suriname,5.83,-55.17,1992,2
SVK,Slovakia,48.15,17.12,1992,0
SVN,Slovenia,46.05,14.52,1992,3
SWE,Sweden,59.33,18.05,1992,105
SYR,Syria,33.5,36.3,1992,1
TGO,Togo,6.12,1.22,1992,0
THA,Thailand,13.75,100.52,1992,4
TJK,Tajikistan,38.55,68.77,1992,0
TKM,Turkmenistan,37.95,58.38,1992,0
TON,Tonga,-21.13,-175.2,1992,0
TTO,Trinidad and Tobago,10.65,-61.52,1992,4
TUN,Tunisia,36.8,10.18,1992,5
TUR,Turkey,39.93,32.87,1992,29
TZA,Tanzania,-6.8,39.28,1992,2
UGA,Uganda,0.32,32.55,1992,5
UKR,Ukraine,50.43,30.52,1992,0
URY,Uruguay,-34.85,-56.17,1992,1
USA,United States,38.88,-90.0,1992,866
UZB,Uzbekistan,41.32,69.25,1992,0
VEN,Venezuela,10.48,-66.87,1992,7
VIR,United States Virgin Islands,18.35,-64.93,1992,1
VNM,Vietnam,21.03,105.85,1992,0
WSM,Samoa,-13.82,-171.77,1992,0
XKX,Kosovo,42.67,21.17,1992,0
YGL,Yugoslavia,44.83,20.5,1992,74
ZAF,South Africa,-25.7,28.22,1992,6
ZMB,Zambia,-15.42,28.28,1992,1
ZWE,Zimbabwe,-17.82,31.03,1992,1
AFG,Afghanistan,34.52,69.18,1996,0
ARE,United Arab Emirates,24.47,54.37,1996,0
ARG,Argentina,-34.58,-58.67,1996,13
ARM,Armenia,40.17,44.5,1996,2
AUS,Australia,-35.27,149.13,1996,213
AUT,Austria,48.2,16.37,1996,27
AZE,Azerbaijan,40.38,49.87,1996,1
BDI,Burundi,-3.37,29.35,1996,1
BEL,Belgium,50.83,4.33,1996,35
BFA,Burkina Faso,12.37,-1.52,1996,0
BGR,Bulgaria,42.68,23.32,1996,186
BHR,Bahrain,26.23,50.57,1996,0
BHS,Bahamas,25.08,-77.35,1996,4
BLR,Belarus,53.9,27.57,1996,15
BMU,Bermuda,32.28,-64.78,1996,1
BRA,Brazil,-15.78,-47.92,1996,56
BRB,Barbados,13.1,-59.62,1996,0
BWA,Botswana,-24.63,25.9,1996,0
CAN,Canada,45.42,-75.7,1996,135
CHE,Switzerland,46.92,7.47,1996,48
CHL,Chile,-33.45,-70.67,1996,1
CHN,China,39.92,116.38,1996,186
CIV,Côte d'Ivoire,6.82,-5.27,1996,1
CMR,Cameroon,3.87,11.52,1996,2
COL,Colombia,4.6,-74.08,1996,6
CRI,Costa Rica,9.93,-84.08,1996,2
CUB,Cuba,23.12,-82.35,1996,102
CYP,Cyprus,35.17,33.37,1996,0
CZE,Czech Republic,49.81,15.47,1996,99
DEU,Germany,52.52,13.4,1996,912
DJI,Djibouti,11.58,43.15,1996,1
DNK,Denmark,55.67,12.58,1996,58
DOM,Dominican Republic,18.47,-69.9,1996,1
DZA,Algeria,36.75,3.05,1996,7
ECU,Ecuador,-0.22,-78.5,1996,1
EGY,Egypt,30.05,31.25,1996,3
ERI,Eritrea,15.33,38.93,1996,0
ESP,Spain,40.4,-3.68,1996,73
EST,Estonia,59.43,24.72,1996,3
ETH,Ethiopia,9.03,38.7,1996,16
FIN,Finland,60.17,24.93,1996,63
FJI,Fiji,-18.13,178.42,1996,0
FRA,France,48.87,2.33,1996,198
GAB,Gabon,0.38,9.45,1996,0
GBR,Great Britain,54.08,-1.65,1996,214
GEO,Georgia,41.68,44.83,1996,2
GHA,Ghana,5.55,-0.22,1996,4
GRC,Greece,37.98,23.73,1996,20
GRD,Grenada,12.05,-61.75,1996,0
GTM,Guatemala,14.62,-90.52,1996,0
GUY,Guyana,6.8,-58.15,1996,1
HKG,Hong Kong,22.4,114.11,1996,1
HRV,Croatia,45.8,16.0,1996,6
HUN,Hungary,47.5,19.08,1996,257
IDN,Indonesia,-6.17,106.82,1996,13
IND,India,28.6,77.2,1996,6
IRL,Ireland,53.32,-6.23,1996,11
IRN,Iran,35.7,51.42,1996,23
IRQ,Iraq,33.33,44.4,1996,1
ISL,Iceland,64.15,-21.95,1996,1
ISR,Israel,31.77,35.23,1996,3
ITA,Italy,41.9,12.48,1996,235
JAM,Jamaica,18.0,-76.8,1996,24
JOR,Jordan,31.95,35.93,1996,0
JPN,Japan,35.68,139.75,1996,212
KAZ,Kazakhstan,51.17,71.42,1996,11
KEN,Kenya,-1.28,36.82,1996,47
KGZ,Kyrgyzstan,42.87,74.6,1996,0
KOR,South Korea,37.55,126.98,1996,133
KWT,Kuwait,29.37,47.97,1996,0
LBN,Lebanon,33.87,35.5,1996,2
LKA,Sri Lanka,6.92,79.83,1996,0
LTU,Lithuania,54.68,25.32,1996,3
LVA,Latvia,56.95,24.1,1996,4
MAR,Morocco,34.02,-6.82,1996,11
MDA,Moldova,47.0,28.85,1996,3
MEX,Mexico,19.43,-99.13,1996,28
MKD,North Macedonia,41.6,21.74,1996,0
MNE,Montenegro,42.43,19.27,1996,0
MNG,Mongolia,47.92,106.92,1996,14
MOZ,Mozambique,-25.95,32.58,1996,1
MUS,Mauritius,-20.15,57.48,1996,0
MYS,Malaysia,3.17,101.7,1996,5
NAM,Namibia,-22.57,17.08,1996,4
NER,Niger,13.52,2.12,1996,1
NGA,Nigeria,9.08,7.53,1996,14
NLD,Netherlands,52.35,4.92,1996,101
NOR,Norway,59.92,10.75,1996,38
NZL,New Zealand,-41.3,174.78,1996,67
PAK,Pakistan,33.68,73.05,1996,9
PAN,Panama,8.97,-79.53,1996,0
PER,Peru,-12.05,-77.05,1996,3
PHL,Philippines,14.6,120.97,1996,4
POL,Poland,52.25,21.0,1996,202
PRI,Puerto Rico,18.47,-66.12,1996,5
PRK,North Korea,39.02,125.75,1996,27
PRT,Portugal,38.72,-9.13,1996,11
PRY,Paraguay,-25.27,-57.67,1996,0
QAT,Qatar,25.28,51.53,1996,1
ROU,Romania,44.43,26.1,1996,240
RUS,Russia,55.75,37.6,1996,1057
SAU,Saudi Arabia,24.65,46.7,1996,0
SDN,Sudan,15.6,32.53,1996,0
SEN,Senegal,14.73,-17.63,1996,1
SGP,Singapore,1.28,103.85,1996,1
SMR,San Marino,43.93,12.42,1996,0
SRB,Serbia,44.83,20.5,1996,4
SUR,Suriname,5.83,-55.17,1996,2
SVK,Slovakia,48.15,17.12,1996,3
SVN,Slovenia,46.05,14.52,1996,5
SWE,Sweden,59.33,18.05,1996,115
SYR,Syria,33.5,36.3,1996,2
TGO,Togo,6.12,1.22,1996,0
THA,Thailand,13.75,100.52,1996,6
TJK,Tajikistan,38.55,68.77,1996,0
TKM,Turkmenistan,37.95,58.38,1996,0
TON,Tonga,-21.13,-175.2,1996,1
TTO,Trinidad and Tobago,10.65,-61.52,1996,6
TUN,Tunisia,36.8,10.18,1996,6
TUR,Turkey,39.93,32.87,1996,35
TZA,Tanzania,-6.8,39.28,1996,2
UGA,Uganda,0.32,32.55,1996,6
UKR,Ukraine,50.43,30.52,1996,25
URY,Uruguay,-34.85,-56.17,1996,1
USA,United States,38.88,-90.0,1996,972
UZB,Uzbekistan,41.32,69.25,1996,2
VEN,Venezuela,10.48,-66.87,1996,7
VIR,United States Virgin Islands,18.35,-64.93,1996,1
VNM,Vietnam,21.03,105.85,1996,0
WSM,Samoa,-13.82,-171.77,1996,0
XKX,Kosovo,42.67,21.17,1996,0
YGL,Yugoslavia,44.83,20.5,1996,74
ZAF,South Africa,-25.7,28.22,1996,11
ZMB,Zambia,-15.42,28.28,1996,2
ZWE,Zimbabwe,-17.82,31.03,1996,1
AFG,Afghanistan,34.52,69.18,2000,0
ARE,United Arab Emirates,24.47,54.37,2000,0
ARG,Argentina,-34.58,-58.67,2000,18
ARM,Armenia,40.17,44.5,2000,3
AUS,Australia,-35.27,149.13,2000,282
AUT,Austria,48.2,16.37,2000,31
AZE,Azerbaijan,40.38,49.87,2000,4
BDI,Burundi,-3.37,29.35,2000,1
BEL,Belgium,50.83,4.33,2000,42
BFA,Burkina Faso,12.37,-1.52,2000,0
BGR,Bulgaria,42.68,23.32,2000,199
BHR,Bahrain,26.23,50.57,2000,0
BHS,Bahamas,25.08,-77.35,2000,7
BLR,Belarus,53.9,27.57,2000,32
BMU,Bermuda,32.28,-64.78,2000,1
BRA,Brazil,-15.78,-47.92,2000,72
BRB,Barbados,13.1,-59.62,2000,1
BWA,Botswana,-24.63,25.9,2000,0
CAN,Canada,45.42,-75.7,2000,151
CHE,Switzerland,46.92,7.47,2000,57
CHL,Chile,-33.45,-70.67,2000,2
CHN,China,39.92,116.38,2000,261
CIV,Côte d'Ivoire,6.82,-5.27,2000,1
CMR,Cameroon,3.87,11.52,2000,3
COL,Colombia,4.6,-74.08,2000,7
CRI,Costa Rica,9.93,-84.08,2000,4
CUB,Cuba,23.12,-82.35,2000,132
CYP,Cyprus,35.17,33.37,2000,0
CZE,Czech Republic,49.81,15.47,2000,108
DEU,Germany,52.52,13.4,2000,976
DJI,Djibouti,11.58,43.15,2000,1
DNK,Denmark,55.67,12.58,2000,64
DOM,Dominican Republic,18.47,-69.9,2000,1
DZA,Algeria,36.75,3.05,2000,12
ECU,Ecuador,-0.22,-78.5,2000,1
EGY,Egypt,30.05,31.25,2000,3
ERI,Eritrea,15.33,38.93,2000,0
ESP,Spain,40.4,-3.68,2000,85
EST,Estonia,59.43,24.72,2000,6
ETH,Ethiopia,9.03,38.7,2000,24
FIN,Finland,60.17,24.93,2000,68
FJI,Fiji,-18.13,178.42,2000,0
FRA,France,48.87,2.33,2000,240
GAB,Gabon,0.38,9.45,2000,0
GBR,Great Britain,54.08,-1.65,2000,245
GEO,Georgia,41.68,44.83,2000,8
GHA,Ghana,5.55,-0.22,2000,4
GRC,Greece,37.98,23.73,2000,33
GRD,Grenada,12.05,-61.75,2000,0
GTM,Guatemala,14.62,-90.52,2000,0
GUY,Guyana,6.8,-58.15,2000,1
HKG,Hong Kong,22.4,114.11,2000,1
HRV,Croatia,45.8,16.0,2000,8
HUN,Hungary,47.5,19.08,2000,278
IDN,Indonesia,-6.17,106.82,2000,21
IND,India,28.6,77.2,2000,7
IRL,Ireland,53.32,-6.23,2000,12
IRN,Iran,35.7,51.42,2000,27
IRQ,Iraq,33.33,44.4,2000,1
ISL,Iceland,64.15,-21.95,2000,2
ISR,Israel,31.77,35.23,2000,4
ITA,Italy,41.9,12.48,2000,273
JAM,Jamaica,18.0,-76.8,2000,33
JOR,Jordan,31.95,35.93,2000,0
JPN,Japan,35.68,139.75,2000,231
KAZ,Kazakhstan,51.17,71.42,2000,18
KEN,Kenya,-1.28,36.82,2000,54
KGZ,Kyrgyzstan,42.87,74.6,2000,1
KOR,South Korea,37.55,126.98,2000,164
KWT,Kuwait,29.37,47.97,2000,1
LBN,Lebanon,33.87,35.5,2000,2
LKA,Sri Lanka,6.92,79.83,2000,1
LTU,Lithuania,54.68,25.32,2000,9
LVA,Latvia,56.95,24.1,2000,7
MAR,Morocco,34.02,-6.82,2000,16
MDA,Moldova,47.0,28.85,2000,5
MEX,Mexico,19.43,-99.13,2000,34
MKD,North Macedonia,41.6,21.74,2000,1
MNE,Montenegro,42.43,19.27,2000,0
MNG,Mongolia,47.92,106.92,2000,14
MOZ,Mozambique,-25.95,32.58,2000,2
MUS,Mauritius,-20.15,57.48,2000,0
MYS,Malaysia,3.17,101.7,2000,5
NAM,Namibia,-22.57,17.08,2000,4
NER,Niger,13.52,2.12,2000,1
NGA,Nigeria,9.08,7.53,2000,17
NLD,Netherlands,52.35,4.92,2000,128
NOR,Norway,59.92,10.75,2000,49
NZL,New Zealand,-41.3,174.78,2000,71
PAK,Pakistan,33.68,73.05,2000,9
PAN,Panama,8.97,-79.53,2000,0
PER,Peru,-12.05,-77.05,2000,3
PHL,Philippines,14.6,120.97,2000,4
POL,Poland,52.25,21.0,2000,220
PRI,Puerto Rico,18.47,-66.12,2000,5
PRK,North Korea,39.02,125.75,2000,31
PRT,Portugal,38.72,-9.13,2000,13
PRY,Paraguay,-25.27,-57.67,2000,0
QAT,Qatar,25.28,51.53,2000,2
ROU,Romania,44.43,26.1,2000,270
RUS,Russia,55.75,37.6,2000,1150
SAU,Saudi Arabia,24.65,46.7,2000,2
SDN,Sudan,15.6,32.53,2000,0
SEN,Senegal,14.73,-17.63,2000,1
SGP,Singapore,1.28,103.85,2000,1
SMR,San Marino,43.93,12.42,2000,0
SRB,Serbia,44.83,20.5,2000,7
SUR,Suriname,5.83,-55.17,2000,2
SVK,Slovakia,48.15,17.12,2000,9
SVN,Slovenia,46.05,14.52,2000,8
SWE,Sweden,59.33,18.05,2000,128
SYR,Syria,33.5,36.3,2000,2
TGO,Togo,6.12,1.22,2000,0
THA,Thailand,13.75,100.52,2000,9
TJK,Tajikistan,38.55,68.77,2000,0
TKM,Turkmenistan,37.95,58.38,2000,0
TON,Tonga,-21.13,-175.2,2000,1
TTO,Trinidad and Tobago,10.65,-61.52,2000,8
TUN,Tunisia,36.8,10.18,2000,6
TUR,Turkey,39.93,32.87,2000,40
TZA,Tanzania,-6.8,39.28,2000,2
UGA,Uganda,0.32,32.55,2000,6
UKR,Ukraine,50.43,30.52,2000,50
URY,Uruguay,-34.85,-56.17,2000,2
USA,United States,38.88,-90.0,2000,1074
UZB,Uzbekistan,41.32,69.25,2000,6
VEN,Venezuela,10.48,-66.87,2000,7
VIR,United States Virgin Islands,18.35,-64.93,2000,1
VNM,Vietnam,21.03,105.85,2000,1
WSM,Samoa,-13.82,-171.77,2000,0
XKX,Kosovo,42.67,21.17,2000,0
YGL,Yugoslavia,44.83,20.5,2000,74
ZAF,South Africa,-25.7,28.22,2000,16
ZMB,Zambia,-15.42,28.28,2000,2
ZWE,Zimbabwe,-17.82,31.03,2000,1
AFG,Afghanistan,34.52,69.18,2004,0
ARE,United Arab Emirates,24.47,54.37,2004,1
ARG,Argentina,-34.58,-58.67,2004,26
ARM,Armenia,40.17,44.5,2004,3
AUS,Australia,-35.27,149.13,2004,338
AUT,Austria,48.2,16.37,2004,39
AZE,Azerbaijan,40.38,49.87,2004,9
BDI,Burundi,-3.37,29.35,2004,1
BEL,Belgium,50.83,4.33,2004,45
BFA,Burkina Faso,12.37,-1.52,2004,0
BGR,Bulgaria,42.68,23.32,2004,211
BHR,Bahrain,26.23,50.57,2004,0
BHS,Bahamas,25.08,-77.35,2004,9
BLR,Belarus,53.9,27.57,2004,47
BMU,Bermuda,32.28,-64.78,2004,1
BRA,Brazil,-15.78,-47.92,2004,85
BRB,Barbados,13.1,-59.62,2004,1
BWA,Botswana,-24.63,25.9,2004,0
CAN,Canada,45.42,-75.7,2004,165
CHE,Switzerland,46.92,7.47,2004,64
CHL,Chile,-33.45,-70.67,2004,6
CHN,China,39.92,116.38,2004,340
CIV,Côte d'Ivoire,6.82,-5.27,2004,1
CMR,Cameroon,3.87,11.52,2004,4
COL,Colombia,4.6,-74.08,2004,9
CRI,Costa Rica,9.93,-84.08,2004,4
CUB,Cuba,23.12,-82.35,2004,160
CYP,Cyprus,35.17,33.37,2004,0
CZE,Czech Republic,49.81,15.47,2004,118
DEU,Germany,52.52,13.4,2004,1033
DJI,Djibouti,11.58,43.15,2004,1
DNK,Denmark,55.67,12.58,2004,74
DOM,Dominican Republic,18.47,-69.9,2004,2
DZA,Algeria,36.75,3.05,2004,12
ECU,Ecuador,-0.22,-78.5,2004,1
EGY,Egypt,30.05,31.25,2004,8
ERI,Eritrea,15.33,38.93,2004,1
ESP,Spain,40.4,-3.68,2004,109
EST,Estonia,59.43,24.72,2004,9
ETH,Ethiopia,9.03,38.7,2004,31
FIN,Finland,60.17,24.93,2004,70
FJI,Fiji,-18.13,178.42,2004,0
FRA,France,48.87,2.33,2004,276
GAB,Gabon,0.38,9.45,2004,0
GBR,Great Britain,54.08,-1.65,2004,282
GEO,Georgia,41.68,44.83,2004,12
GHA,Ghana,5.55,-0.22,2004,4
GRC,Greece,37.98,23.73,2004,52
GRD,Grenada,12.05,-61.75,2004,0
GTM,Guatemala,14.62,-90.52,2004,0
GUY,Guyana,6.8,-58.15,2004,1
HKG,Hong Kong,22.4,114.11,2004,3
HRV,Croatia,45.8,16.0,2004,15
HUN,Hungary,47.5,19.08,2004,297
IDN,Indonesia,-6.17,106.82,2004,26
IND,India,28.6,77.2,2004,8
IRL,Ireland,53.32,-6.23,2004,12
IRN,Iran,35.7,51.42,2004,33
IRQ,Iraq,33.33,44.4,2004,1
ISL,Iceland,64.15,-21.95,2004,2
ISR,Israel,31.77,35.23,2004,6
ITA,Italy,41.9,12.48,2004,307
JAM,Jamaica,18.0,-76.8,2004,38
JOR,Jordan,31.95,35.93,2004,0
JPN,Japan,35.68,139.75,2004,270
KAZ,Kazakhstan,51.17,71.42,2004,26
KEN,Kenya,-1.28,36.82,2004,61
KGZ,Kyrgyzstan,42.87,74.6,2004,1
KOR,South Korea,37.55,126.98,2004,198
KWT,Kuwait,29.37,47.97,2004,1
LBN,Lebanon,33.87,35.5,2004,2
LKA,Sri Lanka,6.92,79.83,2004,1
LTU,Lithuania,54.68,25.32,2004,12
LVA,Latvia,56.95,24.1,2004,11
MAR,Morocco,34.02,-6.82,2004,19
MDA,Moldova,47.0,28.85,2004,5
MEX,Mexico,19.43,-99.13,2004,38
MKD,North Macedonia,41.6,21.74,2004,1
MNE,Montenegro,42.43,19.27,2004,0
MNG,Mongolia,47.92,106.92,2004,15
MOZ,Mozambique,-25.95,32.58,2004,2
MUS,Mauritius,-20.15,57.48,2004,0
MYS,Malaysia,3.17,101.7,2004,5
NAM,Namibia,-22.57,17.08,2004,4
NER,Niger,13.52,2.12,2004,1
NGA,Nigeria,9.08,7.53,2004,19
NLD,Netherlands,52.35,4.92,2004,151
NOR,Norway,59.92,10.75,2004,56
NZL,New Zealand,-41.3,174.78,2004,77
PAK,Pakistan,33.68,73.05,2004,9
PAN,Panama,8.97,-79.53,2004,0
PER,Peru,-12.05,-77.05,2004,3
PHL,Philippines,14.6,120.97,2004,4
POL,Poland,52.25,21.0,2004,232
PRI,Puerto Rico,18.47,-66.12,2004,5
PRK,North Korea,39.02,125.75,2004,36
PRT,Portugal,38.72,-9.13,2004,16
PRY,Paraguay,-25.27,-57.67,2004,1
QAT,Qatar,25.28,51.53,2004,2
ROU,Romania,44.43,26.1,2004,291
RUS,Russia,55.75,37.6,2004,1245
SAU,Saudi Arabia,24.65,46.7,2004,2
SDN,Sudan,15.6,32.53,2004,0
SEN,Senegal,14.73,-17.63,2004,1
SGP,Singapore,1.28,103.85,2004,1
SMR,San Marino,43.93,12.42,2004,0
SRB,Serbia,44.83,20.5,2004,9
SUR,Suriname,5.83,-55.17,2004,2
SVK,Slovakia,48.15,17.12,2004,16
SVN,Slovenia,46.05,14.52,2004,13
SWE,Sweden,59.33,18.05,2004,137
SYR,Syria,33.5,36.3,2004,3
TGO,Togo,6.12,1.22,2004,0
THA,Thailand,13.75,100.52,2004,17
TJK,Tajikistan,38.55,68.77,2004,0
TKM,Turkmenistan,37.95,58.38,2004,0
TON,Tonga,-21.13,-175.2,2004,1
TTO,Trinidad and Tobago,10.65,-61.52,2004,9
TUN,Tunisia,36.8,10.18,2004,6
TUR,Turkey,39.93,32.87,2004,50
TZA,Tanzania,-6.8,39.28,2004,2
UGA,Uganda,0.32,32.55,2004,6
UKR,Ukraine,50.43,30.52,2004,73
URY,Uruguay,-34.85,-56.17,2004,2
USA,United States,38.88,-90.0,2004,1180
UZB,Uzbekistan,41.32,69.25,2004,11
VEN,Venezuela,10.48,-66.87,2004,9
VIR,United States Virgin Islands,18.35,-64.93,2004,1
VNM,Vietnam,21.03,105.85,2004,1
WSM,Samoa,-13.82,-171.77,2004,0
XKX,Kosovo,42.67,21.17,2004,0
YGL,Yugoslavia,44.83,20.5,2004,74
ZAF,South Africa,-25.7,28.22,2004,23
ZMB,Zambia,-15.42,28.28,2004,2
ZWE,Zimbabwe,-17.82,31.03,2004,4
AFG,Afghanistan,34.52,69.18,2008,1
ARE,United Arab Emirates,24.47,54.37,2008,1
ARG,Argentina,-34.58,-58.67,2008,34
ARM,Armenia,40.17,44.5,2008,8
AUS,Australia,-35.27,149.13,2008,390
AUT,Austria,48.2,16.37,2008,42
AZE,Azerbaijan,40.38,49.87,2008,15
BDI,Burundi,-3.37,29.35,2008,1
BEL,Belgium,50.83,4.33,2008,47
BFA,Burkina Faso,12.37,-1.52,2008,0
BGR,Bulgaria,42.68,23.32,2008,216
BHR,Bahrain,26.23,50.57,2008,0
BHS,Bahamas,25.08,-77.35,2008,11
BLR,Belarus,53.9,27.57,2008,64
BMU,Bermuda,32.28,-64.78,2008,1
BRA,Brazil,-15.78,-47.92,2008,106
BRB,Barbados,13.1,-59.62,2008,1
BWA,Botswana,-24.63,25.9,2008,0
CAN,Canada,45.42,-75.7,2008,187
CHE,Switzerland,46.92,7.47,2008,72
CHL,Chile,-33.45,-70.67,2008,7
CHN,China,39.92,116.38,2008,457
CIV,Côte d'Ivoire,6.82,-5.27,2008,1
CMR,Cameroon,3.87,11.52,2008,5
COL,Colombia,4.6,-74.08,2008,12
CRI,Costa Rica,9.93,-84.08,2008,4
CUB,Cuba,23.12,-82.35,2008,190
CYP,Cyprus,35.17,33.37,2008,0
CZE,Czech Republic,49.81,15.47,2008,126
DEU,Germany,52.52,13.4,2008,1082
DJI,Djibouti,11.58,43.15,2008,1
DNK,Denmark,55.67,12.58,2008,84
DOM,Dominican Republic,18.47,-69.9,2008,4
DZA,Algeria,36.75,3.05,2008,14
ECU,Ecuador,-0.22,-78.5,2008,2
EGY,Egypt,30.05,31.25,2008,10
ERI,Eritrea,15.33,38.93,2008,1
ESP,Spain,40.4,-3.68,2008,134
EST,Estonia,59.43,24.72,2008,12
ETH,Ethiopia,9.03,38.7,2008,38
FIN,Finland,60.17,24.93,2008,75
FJI,Fiji,-18.13,178.42,2008,0
FRA,France,48.87,2.33,2008,321
GAB,Gabon,0.38,9.45,2008,0
GBR,Great Britain,54.08,-1.65,2008,338
GEO,Georgia,41.68,44.83,2008,19
GHA,Ghana,5.55,-0.22,2008,4
GRC,Greece,37.98,23.73,2008,56
GRD,Grenada,12.05,-61.75,2008,0
GTM,Guatemala,14.62,-90.52,2008,0
GUY,Guyana,6.8,-58.15,2008,1
HKG,Hong Kong,22.4,114.11,2008,3
HRV,Croatia,45.8,16.0,2008,20
HUN,Hungary,47.5,19.08,2008,309
IDN,Indonesia,-6.17,106.82,2008,34
IND,India,28.6,77.2,2008,11
IRL,Ireland,53.32,-6.23,2008,15
IRN,Iran,35.7,51.42,2008,35
IRQ,Iraq,33.33,44.4,2008,1
ISL,Iceland,64.15,-21.95,2008,3
ISR,Israel,31.77,35.23,2008,7
ITA,Italy,41.9,12.48,2008,335
JAM,Jamaica,18.0,-76.8,2008,48
JOR,Jordan,31.95,35.93,2008,0
JPN,Japan,35.68,139.75,2008,296
KAZ,Kazakhstan,51.17,71.42,2008,35
KEN,Kenya,-1.28,36.82,2008,77
KGZ,Kyrgyzstan,42.87,74.6,2008,4
KOR,South Korea,37.55,126.98,2008,233
KWT,Kuwait,29.37,47.97,2008,1
LBN,Lebanon,33.87,35.5,2008,2
LKA,Sri Lanka,6.92,79.83,2008,1
LTU,Lithuania,54.68,25.32,2008,17
LVA,Latvia,56.95,24.1,2008,14
MAR,Morocco,34.02,-6.82,2008,21
MDA,Moldova,47.0,28.85,2008,6
MEX,Mexico,19.43,-99.13,2008,43
MKD,North Macedonia,41.6,21.74,2008,1
MNE,Montenegro,42.43,19.27,2008,0
MNG,Mongolia,47.92,106.92,2008,19
MOZ,Mozambique,-25.95,32.58,2008,2
MUS,Mauritius,-20.15,57.48,2008,1
MYS,Malaysia,3.17,101.7,2008,6
NAM,Namibia,-22.57,17.08,2008,4
NER,Niger,13.52,2.12,2008,1
NGA,Nigeria,9.08,7.53,2008,24
NLD,Netherlands,52.35,4.92,2008,169
NOR,Norway,59.92,10.75,2008,65
NZL,New Zealand,-41.3,174.78,2008,88
PAK,Pakistan,33.68,73.05,2008,9
PAN,Panama,8.97,-79.53,2008,1
PER,Peru,-12.05,-77.05,2008,3
PHL,Philippines,14.6,120.97,2008,4
POL,Poland,52.25,21.0,2008,244
PRI,Puerto Rico,18.47,-66.12,2008,5
PRK,North Korea,39.02,125.75,2008,42
PRT,Portugal,38.72,-9.13,2008,18
PRY,Paraguay,-25.27,-57.67,2008,1
QAT,Qatar,25.28,51.53,2008,2
ROU,Romania,44.43,26.1,2008,301
RUS,Russia,55.75,37.6,2008,1312
SAU,Saudi Arabia,24.65,46.7,2008,2
SDN,Sudan,15.6,32.53,2008,1
SEN,Senegal,14.73,-17.63,2008,1
SGP,Singapore,1.28,103.85,2008,2
SMR,San Marino,43.93,12.42,2008,0
SRB,Serbia,44.83,20.5,2008,12
SUR,Suriname,5.83,-55.17,2008,2
SVK,Slovakia,48.15,17.12,2008,23
SVN,Slovenia,46.05,14.52,2008,18
SWE,Sweden,59.33,18.05,2008,144
SYR,Syria,33.5,36.3,2008,3
TGO,Togo,6.12,1.22,2008,1
THA,Thailand,13.75,100.52,2008,23
TJK,Tajikistan,38.55,68.77,2008,2
TKM,Turkmenistan,37.95,58.38,2008,0
TON,Tonga,-21.13,-175.2,2008,1
TTO,Trinidad and Tobago,10.65,-61.52,2008,11
TUN,Tunisia,36.8,10.18,2008,7
TUR,Turkey,39.93,32.87,2008,55
TZA,Tanzania,-6.8,39.28,2008,2
UGA,Uganda,0.32,32.55,2008,6
UKR,Ukraine,50.43,30.52,2008,96
URY,Uruguay,-34.85,-56.17,2008,2
USA,United States,38.88,-90.0,2008,1296
UZB,Uzbekistan,41.32,69.25,2008,15
VEN,Venezuela,10.48,-66.87,2008,10
VIR,United States Virgin Islands,18.35,-64.93,2008,1
VNM,Vietnam,21.03,105.85,2008,2
WSM,Samoa,-13.82,-171.77,2008,1
XKX,Kosovo,42.67,21.17,2008,0
YGL,Yugoslavia,44.83,20.5,2008,74
ZAF,South Africa,-25.7,28.22,2008,24
ZMB,Zambia,-15.42,28.28,2008,2
ZWE,Zimbabwe,-17.82,31.03,2008,8
AFG,Afghanistan,34.52,69.18,2012,2
ARE,United Arab Emirates,24.47,54.37,2012,1
ARG,Argentina,-34.58,-58.67,2012,39
ARM,Armenia,40.17,44.5,2012,10
AUS,Australia,-35.27,149.13,2012,430
AUT,Austria,48.2,16.37,2012,42
AZE,Azerbaijan,40.38,49.87,2012,25
BDI,Burundi,-3.37,29.35,2012,1
BEL,Belgium,50.83,4.33,2012,50
BFA,Burkina Faso,12.37,-1.52,2012,0
BGR,Bulgaria,42.68,23.32,2012,219
BHR,Bahrain,26.23,50.57,2012,1
BHS,Bahamas,25.08,-77.35,2012,12
BLR,Belarus,53.9,27.57,2012,77
BMU,Bermuda,32.28,-64.78,2012,1
BRA,Brazil,-15.78,-47.92,2012,126
BRB,Barbados,13.1,-59.62,2012,1
BWA,Botswana,-24.63,25.9,2012,1
CAN,Canada,45.42,-75.7,2012,207
CHE,Switzerland,46.92,7.47,2012,76
CHL,Chile,-33.45,-70.67,2012,7
CHN,China,39.92,116.38,2012,561
CIV,Côte d'Ivoire,6.82,-5.27,2012,1
CMR,Cameroon,3.87,11.52,2012,6
COL,Colombia,4.6,-74.08,2012,21
CRI,Costa Rica,9.93,-84.08,2012,4
CUB,Cuba,23.12,-82.35,2012,205
CYP,Cyprus,35.17,33.37,2012,1
CZE,Czech Republic,49.81,15.47,2012,138
DEU,Germany,52.52,13.4,2012,1131
DJI,Djibouti,11.58,43.15,2012,1
DNK,Denmark,55.67,12.58,2012,97
DOM,Dominican Republic,18.47,-69.9,2012,6
DZA,Algeria,36.75,3.05,2012,15
ECU,Ecuador,-0.22,-78.5,2012,2
EGY,Egypt,30.05,31.25,2012,14
ERI,Eritrea,15.33,38.93,2012,1
ESP,Spain,40.4,-3.68,2012,155
EST,Estonia,59.43,24.72,2012,14
ETH,Ethiopia,9.03,38.7,2012,45
FIN,Finland,60.17,24.93,2012,78
FJI,Fiji,-18.13,178.42,2012,0
FRA,France,48.87,2.33,2012,359
GAB,Gabon,0.38,9.45,2012,1
GBR,Great Britain,54.08,-1.65,2012,415
GEO,Georgia,41.68,44.83,2012,25
GHA,Ghana,5.55,-0.22,2012,4
GRC,Greece,37.98,23.73,2012,59
GRD,Grenada,12.05,-61.75,2012,1
GTM,Guatemala,14.62,-90.52,2012,1
GUY,Guyana,6.8,-58.15,2012,1
HKG,Hong Kong,22.4,114.11,2012,4
HRV,Croatia,45.8,16.0,2012,26
HUN,Hungary,47.5,19.08,2012,329
IDN,Indonesia,-6.17,106.82,2012,37
IND,India,28.6,77.2,2012,17
IRL,Ireland,53.32,-6.23,2012,21
IRN,Iran,35.7,51.42,2012,48
IRQ,Iraq,33.33,44.4,2012,1
ISL,Iceland,64.15,-21.95,2012,3
ISR,Israel,31.77,35.23,2012,7
ITA,Italy,41.9,12.48,2012,364
JAM,Jamaica,18.0,-76.8,2012,60
JOR,Jordan,31.95,35.93,2012,0
JPN,Japan,35.68,139.75,2012,335
KAZ,Kazakhstan,51.17,71.42,2012,46
KEN,Kenya,-1.28,36.82,2012,89
KGZ,Kyrgyzstan,42.87,74.6,2012,4
KOR,South Korea,37.55,126.98,2012,264
KWT,Kuwait,29.37,47.97,2012,2
LBN,Lebanon,33.87,35.5,2012,2
LKA,Sri Lanka,6.92,79.83,2012,1
LTU,Lithuania,54.68,25.32,2012,22
LVA,Latvia,56.95,24.1,2012,17
MAR,Morocco,34.02,-6.82,2012,22
MDA,Moldova,47.0,28.85,2012,6
MEX,Mexico,19.43,-99.13,2012,53
MKD,North Macedonia,41.6,21.74,2012,1
MNE,Montenegro,42.43,19.27,2012,1
MNG,Mongolia,47.92,106.92,2012,24
MOZ,Mozambique,-25.95,32.58,2012,2
MUS,Mauritius,-20.15,57.48,2012,1
MYS,Malaysia,3.17,101.7,2012,8
NAM,Namibia,-22.57,17.08,2012,4
NER,Niger,13.52,2.12,2012,1
NGA,Nigeria,9.08,7.53,2012,24
NLD,Netherlands,52.35,4.92,2012,190
NOR,Norway,59.92,10.75,2012,69
NZL,New Zealand,-41.3,174.78,2012,107
PAK,Pakistan,33.68,73.05,2012,9
PAN,Panama,8.97,-79.53,2012,1
PER,Peru,-12.05,-77.05,2012,3
PHL,Philippines,14.6,120.97,2012,4
POL,Poland,52.25,21.0,2012,257
PRI,Puerto Rico,18.47,-66.12,2012,7
PRK,North Korea,39.02,125.75,2012,49
PRT,Portugal,38.72,-9.13,2012,20
PRY,Paraguay,-25.27,-57.67,2012,1
QAT,Qatar,25.28,51.53,2012,4
ROU,Romania,44.43,26.1,2012,308
RUS,Russia,55.75,37.6,2012,1385
SAU,Saudi Arabia,24.65,46.7,2012,3
SDN,Sudan,15.6,32.53,2012,1
SEN,Senegal,14.73,-17.63,2012,1
SGP,Singapore,1.28,103.85,2012,4
SMR,San Marino,43.93,12.42,2012,0
SRB,Serbia,44.83,20.5,2012,16
SUR,Suriname,5.83,-55.17,2012,2
SVK,Slovakia,48.15,17.12,2012,28
SVN,Slovenia,46.05,14.52,2012,23
SWE,Sweden,59.33,18.05,2012,153
SYR,Syria,33.5,36.3,2012,3
TGO,Togo,6.12,1.22,2012,1
THA,Thailand,13.75,100.52,2012,27
TJK,Tajikistan,38.55,68.77,2012,3
TKM,Turkmenistan,37.95,58.38,2012,0
TON,Tonga,-21.13,-175.2,2012,1
TTO,Trinidad and Tobago,10.65,-61.52,2012,15
TUN,Tunisia,36.8,10.18,2012,10
TUR,Turkey,39.93,32.87,2012,58
TZA,Tanzania,-6.8,39.28,2012,2
UGA,Uganda,0.32,32.55,2012,7
UKR,Ukraine,50.43,30.52,2012,115
URY,Uruguay,-34.85,-56.17,2012,2
USA,United States,38.88,-90.0,2012,1408
UZB,Uzbekistan,41.32,69.25,2012,17
VEN,Venezuela,10.48,-66.87,2012,11
VIR,United States Virgin Islands,18.35,-64.93,2012,1
VNM,Vietnam,21.03,105.85,2012,2
WSM,Samoa,-13.82,-171.77,2012,1
XKX,Kosovo,42.67,21.17,2012,0
YGL,Yugoslavia,44.83,20.5,2012,74
ZAF,South Africa,-25.7,28.22,2012,30
ZMB,Zambia,-15.42,28.28,2012,2
ZWE,Zimbabwe,-17.82,31.03,2012,8
AFG,Afghanistan,34.52,69.18,2016,2
ARE,United Arab Emirates,24.47,54.37,2016,2
ARG,Argentina,-34.58,-58.67,2016,44
ARM,Armenia,40.17,44.5,2016,14
AUS,Australia,-35.27,149.13,2016,464
AUT,Austria,48.2,16.37,2016,44
AZE,Azerbaijan,40.38,49.87,2016,43
BDI,Burundi,-3.37,29.35,2016,2
BEL,Belgium,50.83,4.33,2016,56
BFA,Burkina Faso,12.37,-1.52,2016,0
BGR,Bulgaria,42.68,23.32,2016,222
BHR,Bahrain,26.23,50.57,2016,3
BHS,Bahamas,25.08,-77.35,2016,14
BLR,Belarus,53.9,27.57,2016,86
BMU,Bermuda,32.28,-64.78,2016,1
BRA,Brazil,-15.78,-47.92,2016,149
BRB,Barbados,13.1,-59.62,2016,1
BWA,Botswana,-24.63,25.9,2016,1
CAN,Canada,45.42,-75.7,2016,231
CHE,Switzerland,46.92,7.47,2016,84
CHL,Chile,-33.45,-70.67,2016,7
CHN,China,39.92,116.38,2016,643
CIV,Côte d'Ivoire,6.82,-5.27,2016,3
CMR,Cameroon,3.87,11.52,2016,6
COL,Colombia,4.6,-74.08,2016,29
CRI,Costa Rica,9.93,-84.08,2016,4
CUB,Cuba,23.12,-82.35,2016,216
CYP,Cyprus,35.17,33.37,2016,1
CZE,Czech Republic,49.81,15.47,2016,150
DEU,Germany,52.52,13.4,2016,1179
DJI,Djibouti,11.58,43.15,2016,1
DNK,Denmark,55.67,12.58,2016,115
DOM,Dominican Republic,18.47,-69.9,2016,7
DZA,Algeria,36.75,3.05,2016,17
ECU,Ecuador,-0.22,-78.5,2016,2
EGY,Egypt,30.05,31.25,2016,17
ERI,Eritrea,15.33,38.93,2016,1
ESP,Spain,40.4,-3.68,2016,174
EST,Estonia,59.43,24.72,2016,15
ETH,Ethiopia,9.03,38.7,2016,53
FIN,Finland,60.17,24.93,2016,79
FJI,Fiji,-18.13,178.42,2016,1
FRA,France,48.87,2.33,2016,404
GAB,Gabon,0.38,9.45,2016,1
GBR,Great Britain,54.08,-1.65,2016,490
GEO,Georgia,41.68,44.83,2016,32
GHA,Ghana,5.55,-0.22,2016,4
GRC,Greece,37.98,23.73,2016,66
GRD,Grenada,12.05,-61.75,2016,2
GTM,Guatemala,14.62,-90.52,2016,1
GUY,Guyana,6.8,-58.15,2016,1
HKG,Hong Kong,22.4,114.11,2016,4
HRV,Croatia,45.8,16.0,2016,38
HUN,Hungary,47.5,19.08,2016,345
IDN,Indonesia,-6.17,106.82,2016,41
IND,India,28.6,77.2,2016,19
IRL,Ireland,53.32,-6.23,2016,24
IRN,Iran,35.7,51.42,2016,56
IRQ,Iraq,33.33,44.4,2016,1
ISL,Iceland,64.15,-21.95,2016,3
ISR,Israel,31.77,35.23,2016,9
ITA,Italy,41.9,12.48,2016,395
JAM,Jamaica,18.0,-76.8,2016,71
JOR,Jordan,31.95,35.93,2016,1
JPN,Japan,35.68,139.75,2016,378
KAZ,Kazakhstan,51.17,71.42,2016,64
KEN,Kenya,-1.28,36.82,2016,102
KGZ,Kyrgyzstan,42.87,74.6,2016,4
KOR,South Korea,37.55,126.98,2016,286
KWT,Kuwait,29.37,47.97,2016,2
LBN,Lebanon,33.87,35.5,2016,2
LKA,Sri Lanka,6.92,79.83,2016,1
LTU,Lithuania,54.68,25.32,2016,29
LVA,Latvia,56.95,24.1,2016,17
MAR,Morocco,34.02,-6.82,2016,23
MDA,Moldova,47.0,28.85,2016,6
MEX,Mexico,19.43,-99.13,2016,58
MKD,North Macedonia,41.6,21.74,2016,1
MNE,Montenegro,42.43,19.27,2016,1
MNG,Mongolia,47.92,106.92,2016,26
MOZ,Mozambique,-25.95,32.58,2016,2
MUS,Mauritius,-20.15,57.48,2016,1
MYS,Malaysia,3.17,101.7,2016,16
NAM,Namibia,-22.57,17.08,2016,4
NER,Niger,13.52,2.12,2016,2
NGA,Nigeria,9.08,7.53,2016,25
NLD,Netherlands,52.35,4.92,2016,211
NOR,Norway,59.92,10.75,2016,75
NZL,New Zealand,-41.3,174.78,2016,130
PAK,Pakistan,33.68,73.05,2016,9
PAN,Panama,8.97,-79.53,2016,1
PER,Peru,-12.05,-77.05,2016,3
PHL,Philippines,14.6,120.97,2016,5
POL,Poland,52.25,21.0,2016,270
PRI,Puerto Rico,18.47,-66.12,2016,8
PRK,North Korea,39.02,125.75,2016,56
PRT,Portugal,38.72,-9.13,2016,21
PRY,Paraguay,-25.27,-57.67,2016,1
QAT,Qatar,25.28,51.53,2016,5
ROU,Romania,44.43,26.1,2016,313
RUS,Russia,55.75,37.6,2016,1444
SAU,Saudi Arabia,24.65,46.7,2016,3
SDN,Sudan,15.6,32.53,2016,1
SEN,Senegal,14.73,-17.63,2016,1
SGP,Singapore,1.28,103.85,2016,5
SMR,San Marino,43.93,12.42,2016,0
SRB,Serbia,44.83,20.5,2016,25
SUR,Suriname,5.83,-55.17,2016,2
SVK,Slovakia,48.15,17.12,2016,33
SVN,Slovenia,46.05,14.52,2016,27
SWE,Sweden,59.33,18.05,2016,164
SYR,Syria,33.5,36.3,2016,3
TGO,Togo,6.12,1.22,2016,1
THA,Thailand,13.75,100.52,2016,33
TJK,Tajikistan,38.55,68.77,2016,4
TKM,Turkmenistan,37.95,58.38,2016,0
TON,Tonga,-21.13,-175.2,2016,1
TTO,Trinidad and Tobago,10.65,-61.52,2016,16
TUN,Tunisia,36.8,10.18,2016,13
TUR,Turkey,39.93,32.87,2016,66
TZA,Tanzania,-6.8,39.28,2016,2
UGA,Uganda,0.32,32.55,2016,7
UKR,Ukraine,50.43,30.52,2016,127
URY,Uruguay,-34.85,-56.17,2016,2
USA,United States,38.88,-90.0,2016,1535
UZB,Uzbekistan,41.32,69.25,2016,30
VEN,Venezuela,10.48,-66.87,2016,14
VIR,United States Virgin Islands,18.35,-64.93,2016,1
VNM,Vietnam,21.03,105.85,2016,4
WSM,Samoa,-13.82,-171.77,2016,1
XKX,Kosovo,42.67,21.17,2016,1
YGL,Yugoslavia,44.83,20.5,2016,74
ZAF,South Africa,-25.7,28.22,2016,41
ZMB,Zambia,-15.42,28.28,2016,2
ZWE,Zimbabwe,-17.82,31.03,2016,8
AFG,Afghanistan,34.52,69.18,2020,2
ARE,United Arab Emirates,24.47,54.37,2020,2
ARG,Argentina,-34.58,-58.67,2020,47
ARM,Armenia,40.17,44.5,2020,18
AUS,Australia,-35.27,149.13,2020,514
AUT,Austria,48.2,16.37,2020,51
AZE,Azerbaijan,40.38,49.87,2020,50
BDI,Burundi,-3.37,29.35,2020,2
BEL,Belgium,50.83,4.33,2020,63
BFA,Burkina Faso,12.37,-1.52,2020,1
BGR,Bulgaria,42.68,23.32,2020,228
BHR,Bahrain,26.23,50.57,2020,4
BHS,Bahamas,25.08,-77.35,2020,16
BLR,Belarus,53.9,27.57,2020,93
BMU,Bermuda,32.28,-64.78,2020,2
BRA,Brazil,-15.78,-47.92,2020,172
BRB,Barbados,13.1,-59.62,2020,1
BWA,Botswana,-24.63,25.9,2020,2
CAN,Canada,45.42,-75.7,2020,258
CHE,Switzerland,46.92,7.47,2020,99
CHL,Chile,-33.45,-70.67,2020,7
CHN,China,39.92,116.38,2020,761
CIV,Côte d'Ivoire,6.82,-5.27,2020,4
CMR,Cameroon,3.87,11.52,2020,6
COL,Colombia,4.6,-74.08,2020,34
CRI,Costa Rica,9.93,-84.08,2020,4
CUB,Cuba,23.12,-82.35,2020,232
CYP,Cyprus,35.17,33.37,2020,1
CZE,Czech Republic,49.81,15.47,2020,163
DEU,Germany,52.52,13.4,2020,1225
DJI,Djibouti,11.58,43.15,2020,1
DNK,Denmark,55.67,12.58,2020,129
DOM,Dominican Republic,18.47,-69.9,2020,12
DZA,Algeria,36.75,3.05,2020,17
ECU,Ecuador,-0.22,-78.5,2020,5
EGY,Egypt,30.05,31.25,2020,23
ERI,Eritrea,15.33,38.93,2020,1
ESP,Spain,40.4,-3.68,2020,193
EST,Estonia,59.43,24.72,2020,17
ETH,Ethiopia,9.03,38.7,2020,57
FIN,Finland,60.17,24.93,2020,81
FJI,Fiji,-18.13,178.42,2020,3
FRA,France,48.87,2.33,2020,441
GAB,Gabon,0.38,9.45,2020,1
GBR,Great Britain,54.08,-1.65,2020,561
GEO,Georgia,41.68,44.83,2020,40
GHA,Ghana,5.55,-0.22,2020,5
GRC,Greece,37.98,23.73,2020,70
GRD,Grenada,12.05,-61.75,2020,3
GTM,Guatemala,14.62,-90.52,2020,1
GUY,Guyana,6.8,-58.15,2020,1
HKG,Hong Kong,22.4,114.11,2020,10
HRV,Croatia,45.8,16.0,2020,49
HUN,Hungary,47.5,19.08,2020,366
IDN,Indonesia,-6.17,106.82,2020,47
IND,India,28.6,77.2,2020,26
IRL,Ireland,53.32,-6.23,2020,29
IRN,Iran,35.7,51.42,2020,63
IRQ,Iraq,33.33,44.4,2020,1
ISL,Iceland,64.15,-21.95,2020,3
ISR,Israel,31.77,35.23,2020,13
ITA,Italy,41.9,12.48,2020,438
JAM,Jamaica,18.0,-76.8,2020,80
JOR,Jordan,31.95,35.93,2020,3
JPN,Japan,35.68,139.75,2020,438
KAZ,Kazakhstan,51.17,71.42,2020,72
KEN,Kenya,-1.28,36.82,2020,112
KGZ,Kyrgyzstan,42.87,74.6,2020,7
KOR,South Korea,37.55,126.98,2020,308
KWT,Kuwait,29.37,47.97,2020,3
LBN,Lebanon,33.87,35.5,2020,2
LKA,Sri Lanka,6.92,79.83,2020,1
LTU,Lithuania,54.68,25.32,2020,30
LVA,Latvia,56.95,24.1,2020,19
MAR,Morocco,34.02,-6.82,2020,24
MDA,Moldova,47.0,28.85,2020,7
MEX,Mexico,19.43,-99.13,2020,64
MKD,North Macedonia,41.6,21.74,2020,2
MNE,Montenegro,42.43,19.27,2020,1
MNG,Mongolia,47.92,106.92,2020,30
MOZ,Mozambique,-25.95,32.58,2020,2
MUS,Mauritius,-20.15,57.48,2020,1
MYS,Malaysia,3.17,101.7,2020,19
NAM,Namibia,-22.57,17.08,2020,5
NER,Niger,13.52,2.12,2020,2
NGA,Nigeria,9.08,7.53,2020,27
NLD,Netherlands,52.35,4.92,2020,252
NOR,Norway,59.92,10.75,2020,84
NZL,New Zealand,-41.3,174.78,2020,155
PAK,Pakistan,33.68,73.05,2020,9
PAN,Panama,8.97,-79.53,2020,1
PER,Peru,-12.05,-77.05,2020,3
PHL,Philippines,14.6,120.97,2020,9
POL,Poland,52.25,21.0,2020,286
PRI,Puerto Rico,18.47,-66.12,2020,9
PRK,North Korea,39.02,125.75,2020,56
PRT,Portugal,38.72,-9.13,2020,25
PRY,Paraguay,-25.27,-57.67,2020,1
QAT,Qatar,25.28,51.53,2020,9
ROU,Romania,44.43,26.1,2020,319
RUS,Russia,55.75,37.6,2020,1525
SAU,Saudi Arabia,24.65,46.7,2020,4
SDN,Sudan,15.6,32.53,2020,1
SEN,Senegal,14.73,-17.63,2020,1
SGP,Singapore,1.28,103.85,2020,5
SMR,San Marino,43.93,12.42,2020,4
SRB,Serbia,44.83,20.5,2020,34
SUR,Suriname,5.83,-55.17,2020,2
SVK,Slovakia,48.15,17.12,2020,37
SVN,Slovenia,46.05,14.52,2020,32
SWE,Sweden,59.33,18.05,2020,174
SYR,Syria,33.5,36.3,2020,4
TGO,Togo,6.12,1.22,2020,1
THA,Thailand,13.75,100.52,2020,35
TJK,Tajikistan,38.55,68.77,2020,4
TKM,Turkmenistan,37.95,58.38,2020,1
TON,Tonga,-21.13,-175.2,2020,1
TTO,Trinidad and Tobago,10.65,-61.52,2020,16
TUN,Tunisia,36.8,10.18,2020,15
TUR,Turkey,39.93,32.87,2020,79
TZA,Tanzania,-6.8,39.28,2020,2
UGA,Uganda,0.32,32.55,2020,11
UKR,Ukraine,50.43,30.52,2020,149
URY,Uruguay,-34.85,-56.17,2020,2
USA,United States,38.88,-90.0,2020,1653
UZB,Uzbekistan,41.32,69.25,2020,35
VEN,Venezuela,10.48,-66.87,2020,18
VIR,United States Virgin Islands,18.35,-64.93,2020,1
VNM,Vietnam,21.03,105.85,2020,4
WSM,Samoa,-13.82,-171.77,2020,1
XKX,Kosovo,42.67,21.17,2020,3
YGL,Yugoslavia,44.83,20.5,2020,74
ZAF,South Africa,-25.7,28.22,2020,44
ZMB,Zambia,-15.42,28.28,2020,2
ZWE,Zimbabwe,-17.82,31.03,2020,8
